location_id,street_address,city,state,postal_code,restaurant,full_address,coordinates,latitude,longitude
HD-1,650 Ozark Rd,Abbeville,AL,36310,HD,"650 Ozark Rd, Abbeville, AL 36310","(31.560315, -85.253461)",31.560315,-85.253461
HD-2,9940 Hwy 119,Alabaster,AL,35007,HD,"9940 Hwy 119, Alabaster, AL 35007","(33.221657, -86.823746)",33.221657,-86.823746
HD-3,11024 Us Highway 431,Albertville,AL,35950,HD,"11024 Us Highway 431, Albertville, AL 35950","(34.297777, -86.265932)",34.297777,-86.265932
HD-4,1249 Cherokee Rd,Alexander City,AL,35010,HD,"1249 Cherokee Rd, Alexander City, AL 35010","(32.921819, -85.948361)",32.921819,-85.948361
HD-5,1202 E Bypass,Andalusia,AL,36420,HD,"1202 E Bypass, Andalusia, AL 36420","(31.318619, -86.460882)",31.318619,-86.460882
HD-6,1110 S Jefferson St,Athens,AL,35611,HD,"1110 S Jefferson St, Athens, AL 35611","(34.79638, -86.972153)",34.79638,-86.972153
HD-7,25 Lakeview Cir,Atmore,AL,36502,HD,"25 Lakeview Cir, Atmore, AL 36502","(30.699002, -87.726863)",30.699002,-87.726863
HD-8,970 Gilbert Ferry Rd Se,Attalla,AL,35954,HD,"970 Gilbert Ferry Rd Se, Attalla, AL 35954","(33.9968715, -86.0973093)",33.9968715,-86.0973093
HD-9,800 Wire Rd,Auburn,AL,36832,HD,"800 Wire Rd, Auburn, AL 36832","(32.5887537, -85.5106937)",32.5887537,-85.5106937
HD-10,701 Dolive St,Bay Minette,AL,36507,HD,"701 Dolive St, Bay Minette, AL 36507","(30.878757, -87.782405)",30.878757,-87.782405
HD-11,9400 Parkway East,Birmingham,AL,35215,HD,"9400 Parkway East, Birmingham, AL 35215","(33.610316, -86.688275)",33.610316,-86.688275
HD-12,1771 Us Highway 431,Boaz,AL,35957,HD,"1771 Us Highway 431, Boaz, AL 35957","(34.211472, -86.155569)",34.211472,-86.155569
HD-13,50770 Old Hwy 72,Bridgeport,AL,35740,HD,"50770 Old Hwy 72, Bridgeport, AL 35740","(34.873039, -85.81297)",34.873039,-85.81297
HD-14,499 W Troy St,Brundidge,AL,36010,HD,"499 W Troy St, Brundidge, AL 36010","(31.722721, -85.807467)",31.722721,-85.807467
HD-15,109 E Pushmataha St,Butler,AL,36904,HD,"109 E Pushmataha St, Butler, AL 36904","(32.111461, -88.134851)",32.111461,-88.134851
HD-16,8441 Hwy 31 S,Calera,AL,35040,HD,"8441 Hwy 31 S, Calera, AL 35040","(33.100088, -86.753078)",33.100088,-86.753078
HD-17,35 Highway 41 N,Camden,AL,36726,HD,"35 Highway 41 N, Camden, AL 36726","(31.991795, -87.287002)",31.991795,-87.287002
HD-18,19765 N 3Rd St,Citronelle,AL,36522,HD,"19765 N 3Rd St, Citronelle, AL 36522","(31.103484, -88.238245)",31.103484,-88.238245
HD-19,723 2Nd Ave Nw,Cullman,AL,35055,HD,"723 2Nd Ave Nw, Cullman, AL 35055","(34.1819857, -86.8478991)",34.1819857,-86.8478991
HD-20,1535 County Rd 437,Cullman,AL,35055,HD,"1535 County Rd 437, Cullman, AL 35055","(34.11737, -86.861907)",34.11737,-86.861907
HD-21,1708 Beltline Rd,Decatur,AL,35601,HD,"1708 Beltline Rd, Decatur, AL 35601","(34.600687, -87.031208)",34.600687,-87.031208
HD-22,3241 Point Mallard Pkwy Se,Decatur,AL,35603,HD,"3241 Point Mallard Pkwy Se, Decatur, AL 35603","(34.5374467, -86.9118573)",34.5374467,-86.9118573
HD-23,810 6Th Ave Northeast,Decatur,AL,35601,HD,"810 6Th Ave Northeast, Decatur, AL 35601","(34.6084259, -86.9786563)",34.6084259,-86.9786563
HD-24,1086 Ross Clark Cir,Dothan,AL,36303,HD,"1086 Ross Clark Cir, Dothan, AL 36303","(31.2171038, -85.3612426)",31.2171038,-85.3612426
HD-25,2727 S Oates St,Dothan,AL,36301,HD,"2727 S Oates St, Dothan, AL 36301","(31.1884323, -85.4018672)",31.1884323,-85.4018672
HD-26,4624 W. Main Street,Dothan,AL,36305,HD,"4624 W. Main Street, Dothan, AL 36305","(31.2378334, -85.4621776)",31.2378334,-85.4621776
HD-27,911 Fort Rucker Blvd,Enterprise,AL,36330,HD,"911 Fort Rucker Blvd, Enterprise, AL 36330","(31.323745, -85.827491)",31.323745,-85.827491
HD-28,3194 S Eufaula Ave,Eufaula,AL,36027,HD,"3194 S Eufaula Ave, Eufaula, AL 36027","(31.8446469, -85.1672568)",31.8446469,-85.1672568
HD-29,7561 Mesopotamia St,Eutaw,AL,35462,HD,"7561 Mesopotamia St, Eutaw, AL 35462","(32.842711, -87.892084)",32.842711,-87.892084
HD-30,845 Liberty Hill Dr,Evergreen,AL,36401,HD,"845 Liberty Hill Dr, Evergreen, AL 36401","(31.4469901, -86.9546872)",31.4469901,-86.9546872
HD-31,21514 Highway 31,Flomaton,AL,36441,HD,"21514 Highway 31, Flomaton, AL 36441","(31.008036, -87.26646)",31.008036,-87.26646
HD-32,1113 E 5Th Ave,Florala,AL,36442,HD,"1113 E 5Th Ave, Florala, AL 36442","(30.999156, -86.307016)",30.999156,-86.307016
HD-33,2935 S Mckenzie St,Foley,AL,36535,HD,"2935 S Mckenzie St, Foley, AL 36535","(30.366873, -87.683037)",30.366873,-87.683037
HD-34,1616 Decatur Hwy,Fultondale,AL,35068,HD,"1616 Decatur Hwy, Fultondale, AL 35068","(33.6633505, -86.8142074)",33.6633505,-86.8142074
HD-35,1301 Maple Ave,Geneva,AL,36340,HD,"1301 Maple Ave, Geneva, AL 36340","(31.040581, -85.860749)",31.040581,-85.860749
HD-36,9400 Grand Bay Wilmer Rd,Grand Bay,AL,36541,HD,"9400 Grand Bay Wilmer Rd, Grand Bay, AL 36541","(30.494321, -88.336481)",30.494321,-88.336481
HD-37,3541 CATHEDRAL CAVERNS HWY,GRANT,AL,35747,HD,"3541 CATHEDRAL CAVERNS HWY, GRANT, AL 35747","(34.518158, -86.255628)",34.518158,-86.255628
HD-38,912 Fortdale Rd,Greenville,AL,36037,HD,"912 Fortdale Rd, Greenville, AL 36037","(31.848818, -86.640442)",31.848818,-86.640442
HD-39,837 Gulf Shores Pkwy,Gulf Shores,AL,36542,HD,"837 Gulf Shores Pkwy, Gulf Shores, AL 36542","(30.2568833, -87.688946)",30.2568833,-87.688946
HD-40,5975 HIGHWAY 72 E,GURLEY,AL,35748,HD,"5975 HIGHWAY 72 E, GURLEY, AL 35748","(34.704906, -86.395241)",34.704906,-86.395241
HD-41,261 Bexar Ave E,Hamilton,AL,35570,HD,"261 Bexar Ave E, Hamilton, AL 35570","(34.1461912, -87.9509045)",34.1461912,-87.9509045
HD-42,110 S State Highway 167,Hartford,AL,36344,HD,"110 S State Highway 167, Hartford, AL 36344","(31.060178, -85.686872)",31.060178,-85.686872
HD-43,680 Highway 31 Sw,Hartselle,AL,35640,HD,"680 Highway 31 Sw, Hartselle, AL 35640","(34.449219, -86.944831)",34.449219,-86.944831
HD-44,16832 Us Hwy 431 South,Headland,AL,36345,HD,"16832 Us Hwy 431 South, Headland, AL 36345","(31.402269, -85.322985)",31.402269,-85.322985
HD-45,228 OXMOOR BLVD,HOMEWOOD,AL,35209,HD,"228 OXMOOR BLVD, HOMEWOOD, AL 35209","(33.4632144, -86.8276652)",33.4632144,-86.8276652
HD-46,2162 Valleydale Rd,Hoover,AL,35244,HD,"2162 Valleydale Rd, Hoover, AL 35244","(33.346959, -86.7921084)",33.346959,-86.7921084
HD-47,79 Folmar Pkwy,Hope Hull,AL,36043,HD,"79 Folmar Pkwy, Hope Hull, AL 36043","(31.804648, -85.962734)",31.804648,-85.962734
HD-48,917 ALLISON-BONNETT MEMORIAL DR,HUEYTOWN,AL,35023,HD,"917 ALLISON-BONNETT MEMORIAL DR, HUEYTOWN, AL 35023","(33.4569354, -86.9636609)",33.4569354,-86.9636609
HD-49,2015 Drake Ave,Huntsville,AL,35801,HD,"2015 Drake Ave, Huntsville, AL 35801","(34.705325, -86.588874)",34.705325,-86.588874
HD-50,300 Andrew Jackson Way,Huntsville,AL,35801,HD,"300 Andrew Jackson Way, Huntsville, AL 35801","(34.7369336, -86.5766828)",34.7369336,-86.5766828
HD-51,104 Green Cove Rd Se,Huntsville,AL,35803,HD,"104 Green Cove Rd Se, Huntsville, AL 35803","(34.5954405, -86.561964)",34.5954405,-86.561964
HD-52,3751 Al Highway 53,Huntsville,AL,35806,HD,"3751 Al Highway 53, Huntsville, AL 35806","(34.79276, -86.668569)",34.79276,-86.668569
HD-53,2800 College Ave,Jackson,AL,36545,HD,"2800 College Ave, Jackson, AL 36545","(31.5265511, -87.8934276)",31.5265511,-87.8934276
HD-54,303 Highway 78 W,Jasper,AL,35501,HD,"303 Highway 78 W, Jasper, AL 35501","(33.84615, -87.258899)",33.84615,-87.258899
HD-55,13151 N Hickory St,Loxley,AL,36551,HD,"13151 N Hickory St, Loxley, AL 36551","(30.622059, -87.753035)",30.622059,-87.753035
HD-56,742 S Forest Ave,Luverne,AL,36049,HD,"742 S Forest Ave, Luverne, AL 36049","(31.709694, -86.263808)",31.709694,-86.263808
HD-57,8827 Madison Blvd,Madison,AL,35758,HD,"8827 Madison Blvd, Madison, AL 35758","(34.6780976, -86.7485763)",34.6780976,-86.7485763
HD-58,5870 Wall Triana Hwy,Madison,AL,35758,HD,"5870 Wall Triana Hwy, Madison, AL 35758","(34.751922, -86.749889)",34.751922,-86.749889
HD-59,11909 Highway 231 431 N,Meridianville,AL,35759,HD,"11909 Highway 231 431 N, Meridianville, AL 35759","(34.858775, -86.571475)",34.858775,-86.571475
HD-60,611 Bessemer Super Hwy,Midfield,AL,35228,HD,"611 Bessemer Super Hwy, Midfield, AL 35228","(33.4538409, -86.9213805)",33.4538409,-86.9213805
HD-61,3691 Highway 14,Millbrook,AL,36054,HD,"3691 Highway 14, Millbrook, AL 36054","(32.541463, -86.269573)",32.541463,-86.269573
HD-62,3715 Moffat Rd,Mobile,AL,36618,HD,"3715 Moffat Rd, Mobile, AL 36618","(30.710151, -88.127226)",30.710151,-88.127226
HD-63,565 Government St,Mobile,AL,36602,HD,"565 Government St, Mobile, AL 36602","(30.6877488, -88.0484553)",30.6877488,-88.0484553
HD-64,930 Schillinger Rd S,Mobile,AL,36695,HD,"930 Schillinger Rd S, Mobile, AL 36695","(30.671387, -88.225563)",30.671387,-88.225563
HD-65,3225 St Stephens Rd,Mobile,AL,36612,HD,"3225 St Stephens Rd, Mobile, AL 36612","(30.7494606, -88.1143234)",30.7494606,-88.1143234
HD-66,1608 S Alabama Rd,Monroeville,AL,36460,HD,"1608 S Alabama Rd, Monroeville, AL 36460","(31.507876, -87.319217)",31.507876,-87.319217
HD-67,5401 Atlanta Hwy,Montgomery,AL,36109,HD,"5401 Atlanta Hwy, Montgomery, AL 36109","(32.381916, -86.214026)",32.381916,-86.214026
HD-68,1183 W South Blvd,Montgomery,AL,36105,HD,"1183 W South Blvd, Montgomery, AL 36105","(32.32609, -86.32027)",32.32609,-86.32027
HD-69,906 Ann St,Montgomery,AL,36107,HD,"906 Ann St, Montgomery, AL 36107","(32.3700267, -86.2710563)",32.3700267,-86.2710563
HD-70,2715 Taylor Rd,Montgomery,AL,36117,HD,"2715 Taylor Rd, Montgomery, AL 36117","(32.3405334, -86.1795325)",32.3405334,-86.1795325
HD-71,11838 Al  Hwy 157,Moulton,AL,35650,HD,"11838 Al  Hwy 157, Moulton, AL 35650","(34.483428, -87.273992)",34.483428,-87.273992
HD-72,10139 Highway 431 S,New Hope,AL,35760,HD,"10139 Highway 431 S, New Hope, AL 35760","(34.548985, -86.431408)",34.548985,-86.431408
HD-73,2530 Pepperell Pkwy,Opelika,AL,36801,HD,"2530 Pepperell Pkwy, Opelika, AL 36801","(32.6369992, -85.4157683)",32.6369992,-85.4157683
HD-74,1902 Marvyn Pkwy,Opelika,AL,36804,HD,"1902 Marvyn Pkwy, Opelika, AL 36804","(32.6307891, -85.3718838)",32.6307891,-85.3718838
HD-75,803 Florala Hwy,Opp,AL,36467,HD,"803 Florala Hwy, Opp, AL 36467","(31.2719681, -86.2489444)",31.2719681,-86.2489444
HD-76,2515 Mountain Cove Dr,Owens Cross Roads,AL,35763,HD,"2515 Mountain Cove Dr, Owens Cross Roads, AL 35763","(34.761479, -86.776215)",34.761479,-86.776215
HD-77,1333 Andrews Ave,Ozark,AL,36360,HD,"1333 Andrews Ave, Ozark, AL 36360","(31.453369, -85.649766)",31.453369,-85.649766
HD-78,1300 280 Byp,Phenix City,AL,36867,HD,"1300 280 Byp, Phenix City, AL 36867","(32.507045, -85.054388)",32.507045,-85.054388
HD-79,706 East Main Street,Prattvile,AL,36067,HD,"706 East Main Street, Prattvile, AL 36067","(32.459699, -86.472775)",32.459699,-86.472775
HD-80,2525 Cobbs Ford Rd,Prattville,AL,36066,HD,"2525 Cobbs Ford Rd, Prattville, AL 36066","(32.4601605, -86.3896397)",32.4601605,-86.3896397
HD-81,104 Mccurdy Ave S,Rainsville,AL,35986,HD,"104 Mccurdy Ave S, Rainsville, AL 35986","(34.4929094, -85.8482484)",34.4929094,-85.8482484
HD-82,16191 Highway 72,Rogersville,AL,35652,HD,"16191 Highway 72, Rogersville, AL 35652","(34.8248485, -87.2948167)",34.8248485,-87.2948167
HD-83,1016 Highway 43,Saraland,AL,36571,HD,"1016 Highway 43, Saraland, AL 36571","(30.798594, -88.071474)",30.798594,-88.071474
HD-84,23470 JOHN T REID PKWY,SCOTTSBORO,AL,35768,HD,"23470 JOHN T REID PKWY, SCOTTSBORO, AL 35768","(34.658987, -86.0192947)",34.658987,-86.0192947
HD-85,1201 Highland Ave,Selma,AL,36703,HD,"1201 Highland Ave, Selma, AL 36703","(32.431423, -87.022033)",32.431423,-87.022033
HD-86,2176 Highway 78,Sumiton,AL,35148,HD,"2176 Highway 78, Sumiton, AL 35148","(33.744008, -87.04399)",33.744008,-87.04399
HD-87,42471 Us Hwy 280,Sylacauga,AL,35150,HD,"42471 Us Hwy 280, Sylacauga, AL 35150","(33.1606936, -86.2732804)",33.1606936,-86.2732804
HD-88,1300 Gilmer Ave,Tallassee,AL,36078,HD,"1300 Gilmer Ave, Tallassee, AL 36078","(32.5468541, -85.9117021)",32.5468541,-85.9117021
HD-89,5796 Twin Oaks Court,Theodore,AL,36582,HD,"5796 Twin Oaks Court, Theodore, AL 36582","(31.630758, -87.881358)",31.630758,-87.881358
HD-90,32450 Highway 43,Thomasville,AL,36784,HD,"32450 Highway 43, Thomasville, AL 36784","(31.946261, -87.73852)",31.946261,-87.73852
HD-91,1102 Highway 231 S,Troy,AL,36081,HD,"1102 Highway 231 S, Troy, AL 36081","(31.854885, -85.997625)",31.854885,-85.997625
HD-92,611 15TH ST E,Tuscaloosa,AL,35401,HD,"611 15TH ST E, Tuscaloosa, AL 35401","(33.1972376, -87.5286018)",33.1972376,-87.5286018
HD-93,2515 Paul Bryant Dr,Tuscaloosa,AL,35401,HD,"2515 Paul Bryant Dr, Tuscaloosa, AL 35401","(33.204539, -87.567902)",33.204539,-87.567902
HD-94,929 Skyland Blvd E,Tuscaloosa,AL,35405,HD,"929 Skyland Blvd E, Tuscaloosa, AL 35405","(33.1681863, -87.5245076)",33.1681863,-87.5245076
HD-95,6718 HWY 69 S,TUSCALOOSA,AL,35405,HD,"6718 HWY 69 S, TUSCALOOSA, AL 35405","(33.144444, -87.543469)",33.144444,-87.543469
HD-96,419 Hwy 43 S,Tuscumbia,AL,35674,HD,"419 Hwy 43 S, Tuscumbia, AL 35674","(34.608497, -87.663025)",34.608497,-87.663025
HD-97,280 Warrior Jasper Rd,Warrior,AL,35180,HD,"280 Warrior Jasper Rd, Warrior, AL 35180","(33.813171, -86.836337)",33.813171,-86.836337
HD-98,5091 Us Highway 231,Wetumpka,AL,36092,HD,"5091 Us Highway 231, Wetumpka, AL 36092","(32.514887, -86.212152)",32.514887,-86.212152
HD-99,850 S ST LOUIS STREET,BATESVILLE,AR,72501,HD,"850 S ST LOUIS STREET, BATESVILLE, AR 72501","(35.7711411, -91.6410322)",35.7711411,-91.6410322
HD-100,21 US HWY 64,BEEBE,AR,72012,HD,"21 US HWY 64, BEEBE, AR 72012","(35.0689687, -91.9205727)",35.0689687,-91.9205727
HD-101,1221 W South Street,Benton,AR,72015,HD,"1221 W South Street, Benton, AR 72015","(34.5640044, -92.6005669)",34.5640044,-92.6005669
HD-102,3783 E Highway 18,Blytheville,AR,72315,HD,"3783 E Highway 18, Blytheville, AR 72315","(35.928809, -89.871346)",35.928809,-89.871346
HD-103,2201 NORTH 2ND STREET,CABOT,AR,72023,HD,"2201 NORTH 2ND STREET, CABOT, AR 72023","(34.9895284, -91.9983357)",34.9895284,-91.9983357
HD-104,2500 CLARK RD,CLARKSVILLE,AR,72830,HD,"2500 CLARK RD, CLARKSVILLE, AR 72830","(35.463932, -93.517426)",35.463932,-93.517426
HD-105,1055 Dave Ward Dr,Conway,AR,72034,HD,"1055 Dave Ward Dr, Conway, AR 72034","(35.066577, -92.4402463)",35.066577,-92.4402463
HD-106,2720 Rogers Ave,Fort Smith,AR,72901,HD,"2720 Rogers Ave, Fort Smith, AR 72901","(35.3753303, -94.4025994)",35.3753303,-94.4025994
HD-107,1820 Phoenix Av,Fort Smith,AR,72901,HD,"1820 Phoenix Av, Fort Smith, AR 72901","(35.3385514, -94.415665)",35.3385514,-94.415665
HD-108,1331 RED WOLF BLVD,JONESBORO,AR,72401,HD,"1331 RED WOLF BLVD, JONESBORO, AR 72401","(35.840386, -90.6678446)",35.840386,-90.6678446
HD-109,11700 INTERSTATE 30,LITTLE ROCK,AR,72210,HD,"11700 INTERSTATE 30, LITTLE ROCK, AR 72210","(34.650776, -92.415674)",34.650776,-92.415674
HD-110,500 E North St,Mountain Home,AR,72653,HD,"500 E North St, Mountain Home, AR 72653","(36.3436128, -92.3835471)",36.3436128,-92.3835471
HD-111,604 Ne Main,Mountain View,AR,72560,HD,"604 Ne Main, Mountain View, AR 72560","(35.865523, -92.11099)",35.865523,-92.11099
HD-112,1700 MALCOLM,NEWPORT,AR,72112,HD,"1700 MALCOLM, NEWPORT, AR 72112","(35.60567, -91.258686)",35.60567,-91.258686
HD-113,4901 JOHN F KENNEDY BLVD,NORTH LITTLE ROCK,AR,72116,HD,"4901 JOHN F KENNEDY BLVD, NORTH LITTLE ROCK, AR 72116","(34.7864187, -92.2605254)",34.7864187,-92.2605254
HD-114,301 LINWOOD,PARAGOULD,AR,72450,HD,"301 LINWOOD, PARAGOULD, AR 72450","(36.0549518, -90.5051047)",36.0549518,-90.5051047
HD-115,950 EAST MAIN,PIGGOTT,AR,72454,HD,"950 EAST MAIN, PIGGOTT, AR 72454","(36.38184, -90.179288)",36.38184,-90.179288
HD-116,116 Ron Harrod Rd,Prescott,AR,71857,HD,"116 Ron Harrod Rd, Prescott, AR 71857","(34.037472, -94.331806)",34.037472,-94.331806
HD-117,3095 E Main St,Russellville,AR,72802,HD,"3095 E Main St, Russellville, AR 72802","(35.2779359, -93.0940309)",35.2779359,-93.0940309
HD-118,2997 E RACE AVE,SEARCY,AR,72143,HD,"2997 E RACE AVE, SEARCY, AR 72143","(35.2504139, -91.7010495)",35.2504139,-91.7010495
HD-119,2505 QUEENSWAY ST,SEARCY,AR,72143,HD,"2505 QUEENSWAY ST, SEARCY, AR 72143","(35.2198087, -91.7158822)",35.2198087,-91.7158822
HD-120,201 N ROCK ST,SHERIDAN,AR,72150,HD,"201 N ROCK ST, SHERIDAN, AR 72150","(34.307925, -92.399223)",34.307925,-92.399223
HD-121,1801 Pulaski Hwy,Bear,DE,19701,HD,"1801 Pulaski Hwy, Bear, DE 19701","(39.6111486, -75.7044099)",39.6111486,-75.7044099
HD-122,519 S Bay Rd,Dover,DE,19901,HD,"519 S Bay Rd, Dover, DE 19901","(39.156592, -75.5090649)",39.156592,-75.5090649
HD-123,50 Greentree Dr,Dover,DE,19904,HD,"50 Greentree Dr, Dover, DE 19904","(39.1608018, -75.5574706)",39.1608018,-75.5574706
HD-124,20598 Dupont Blvd,Georgetown,DE,19947,HD,"20598 Dupont Blvd, Georgetown, DE 19947","(38.6988645, -75.4015792)",38.6988645,-75.4015792
HD-125,7237 Milford Harrington Hwy,Harrington,DE,19952,HD,"7237 Milford Harrington Hwy, Harrington, DE 19952","(38.9276182, -75.5024553)",38.9276182,-75.5024553
HD-126,30759 Sussex Hwy,Laurel,DE,19956,HD,"30759 Sussex Hwy, Laurel, DE 19956","(38.5595232, -75.5562238)",38.5595232,-75.5562238
HD-127,340 Dove Run Dr,Middletown,DE,19709,HD,"340 Dove Run Dr, Middletown, DE 19709","(39.506141, -75.632108)",39.506141,-75.632108
HD-128,698 N Dupont Blvd,Milford,DE,19963,HD,"698 N Dupont Blvd, Milford, DE 19963","(38.931634, -75.4307402)",38.931634,-75.4307402
HD-129,28552 Dupont Blvd,Millsboro,DE,19966,HD,"28552 Dupont Blvd, Millsboro, DE 19966","(38.5814509, -75.2923477)",38.5814509,-75.2923477
HD-130,328 W Stein Hwy,Seaford,DE,19973,HD,"328 W Stein Hwy, Seaford, DE 19973","(38.6466126, -75.6224796)",38.6466126,-75.6224796
HD-131,100 Jimmy Dr,Smyrna,DE,19977,HD,"100 Jimmy Dr, Smyrna, DE 19977","(39.285152, -75.595686)",39.285152,-75.595686
HD-132,451 Altamonte Dr.,Altamonte Springs,FL,32701,HD,"451 Altamonte Dr., Altamonte Springs, FL 32701","(28.6639623, -81.3763044)",28.6639623,-81.3763044
HD-133,126 Magnolia Ave,Auburndale,FL,33823,HD,"126 Magnolia Ave, Auburndale, FL 33823","(28.0587281, -81.7847275)",28.0587281,-81.7847275
HD-134,300 E Van Fleet Drive,Bartow,FL,33830,HD,"300 E Van Fleet Drive, Bartow, FL 33830","(27.903972, -81.840412)",27.903972,-81.840412
HD-135,5741 Se Abshier Blvd,Belleview,FL,34420,HD,"5741 Se Abshier Blvd, Belleview, FL 34420","(29.059322, -82.054805)",29.059322,-82.054805
HD-136,2111 S Waukesha St,Bonifay,FL,32425,HD,"2111 S Waukesha St, Bonifay, FL 32425","(30.7736344, -85.6840336)",30.7736344,-85.6840336
HD-137,404 Hwy 27,Branford,FL,32008,HD,"404 Hwy 27, Branford, FL 32008","(29.952784, -82.785989)",29.952784,-82.785989
HD-138,399 N. Hathaway Ave.,Bronson,FL,32621,HD,"399 N. Hathaway Ave., Bronson, FL 32621","(29.446891, -82.640804)",29.446891,-82.640804
HD-139,1685 W Jefferson St,Brooksville,FL,34601,HD,"1685 W Jefferson St, Brooksville, FL 34601","(28.552557, -82.419969)",28.552557,-82.419969
HD-140,542309 Us Hwy 1,Callahan,FL,32011,HD,"542309 Us Hwy 1, Callahan, FL 32011","(30.564539, -81.83091)",30.564539,-81.83091
HD-141,651 West Washington St,Chattahoochee,FL,32324,HD,"651 West Washington St, Chattahoochee, FL 32324","(30.7019787, -84.8367115)",30.7019787,-84.8367115
HD-142,1024 N Young Blvd,Chiefland,FL,32626,HD,"1024 N Young Blvd, Chiefland, FL 32626","(29.4888922, -82.8617607)",29.4888922,-82.8617607
HD-143,1212 Main St,Chipley,FL,32428,HD,"1212 Main St, Chipley, FL 32428","(30.7660679, -85.5403441)",30.7660679,-85.5403441
HD-144,2994 Crawfordville Hwy,Crawfordville,FL,32327,HD,"2994 Crawfordville Hwy, Crawfordville, FL 32327","(30.1784478, -84.3751758)",30.1784478,-84.3751758
HD-145,15909 Se 19 Hwy,Cross City,FL,32628,HD,"15909 Se 19 Hwy, Cross City, FL 32628","(29.61848, -83.098249)",29.61848,-83.098249
HD-146,16 Ne Highway 19,Crystal River,FL,34429,HD,"16 Ne Highway 19, Crystal River, FL 34429","(28.879788, -82.581696)",28.879788,-82.581696
HD-147,39837 Us Hwy 27,Davenport,FL,33837,HD,"39837 Us Hwy 27, Davenport, FL 33837","(28.330268, -81.67076)",28.330268,-81.67076
HD-148,1098 W International Speedway Blvd,Deland,FL,32720,HD,"1098 W International Speedway Blvd, Deland, FL 32720","(29.054679, -81.308538)",29.054679,-81.308538
HD-149,400 Welcome Center Drive,Deltona,FL,32725,HD,"400 Welcome Center Drive, Deltona, FL 32725","(28.8724075, -81.2784586)",28.8724075,-81.2784586
HD-150,28199 Hwy 27,Dundee,FL,33838,HD,"28199 Hwy 27, Dundee, FL 33838","(28.012105, -81.631352)",28.012105,-81.631352
HD-151,11582 Williams St,Dunnellon,FL,34432,HD,"11582 Williams St, Dunnellon, FL 34432","(29.0534781, -82.4577252)",29.0534781,-82.4577252
HD-152,241 US Hwy 17 S,East Palatka,FL,32131,HD,"241 US Hwy 17 S, East Palatka, FL 32131","(29.646899, -81.600325)",29.646899,-81.600325
HD-153,13700 Us Hwy 441,Ellisville,FL,32025,HD,"13700 Us Hwy 441, Ellisville, FL 32025","(30.0025864, -82.5984838)",30.0025864,-82.5984838
HD-154,4900 Palm Beach Blvd,Fort Myers,FL,33905,HD,"4900 Palm Beach Blvd, Fort Myers, FL 33905","(26.7016303, -81.7600379)",26.7016303,-81.7600379
HD-155,200 S Kings Hwy,Fort Pierce,FL,34945,HD,"200 S Kings Hwy, Fort Pierce, FL 34945","(27.4463388, -80.3989527)",27.4463388,-80.3989527
HD-156,822 Beal Pkwy Nw,Fort Walton Beach,FL,32547,HD,"822 Beal Pkwy Nw, Fort Walton Beach, FL 32547","(30.426748, -86.621231)",30.426748,-86.621231
HD-157,5425 Cotton St,Graceville,FL,32440,HD,"5425 Cotton St, Graceville, FL 32440","(30.9632334, -85.5163655)",30.9632334,-85.5163655
HD-158,1323 N Orange Ave,Green Cove Springs,FL,32043,HD,"1323 N Orange Ave, Green Cove Springs, FL 32043","(30.0076768, -81.6938881)",30.0076768,-81.6938881
HD-159,266 W Broad St,Groveland,FL,34736,HD,"266 W Broad St, Groveland, FL 34736","(28.56049, -81.857366)",28.56049,-81.857366
HD-160,19143 Nw Us Hwy 441,High Springs,FL,32643,HD,"19143 Nw Us Hwy 441, High Springs, FL 32643","(29.823454, -82.588357)",29.823454,-82.588357
HD-161,3960 S Suncoast Blvd,Homosassa,FL,34448,HD,"3960 S Suncoast Blvd, Homosassa, FL 34448","(28.804384, -82.576309)",28.804384,-82.576309
HD-162,873 Lane Ave S,Jacksonville,FL,32205,HD,"873 Lane Ave S, Jacksonville, FL 32205","(30.3097426, -81.7513565)",30.3097426,-81.7513565
HD-163,9210 Baymeadows Rd,Jacksonville,FL,32256,HD,"9210 Baymeadows Rd, Jacksonville, FL 32256","(30.220389, -81.5669886)",30.220389,-81.5669886
HD-164,498 Busch Dr,Jacksonville,FL,32218,HD,"498 Busch Dr, Jacksonville, FL 32218","(30.429988, -81.643021)",30.429988,-81.643021
HD-165,6852 Wilson Ave,Jacksonville,FL,32210,HD,"6852 Wilson Ave, Jacksonville, FL 32210","(30.2957722, -81.6133236)",30.2957722,-81.6133236
HD-166,6914 Norwood Avenue,Jacksonville,FL,32208,HD,"6914 Norwood Avenue, Jacksonville, FL 32208","(30.376532, -81.6676434)",30.376532,-81.6676434
HD-167,8040 Normandy Blvd,Jacksonville,FL,32221,HD,"8040 Normandy Blvd, Jacksonville, FL 32221","(30.2920444, -81.7823537)",30.2920444,-81.7823537
HD-168,9111 Merrill Road,Jacksonville,FL,32225,HD,"9111 Merrill Road, Jacksonville, FL 32225","(30.35255, -81.550791)",30.35255,-81.550791
HD-169,12771 Atlantic Blvd,Jacksonville,FL,32225,HD,"12771 Atlantic Blvd, Jacksonville, FL 32225","(30.3180186, -81.4740969)",30.3180186,-81.4740969
HD-170,6680 Commonwealth Ave,Jacksonville,FL,32254,HD,"6680 Commonwealth Ave, Jacksonville, FL 32254","(30.3352381, -81.7587088)",30.3352381,-81.7587088
HD-171,11191 San Jose Blvd,Jacksonville,FL,32223,HD,"11191 San Jose Blvd, Jacksonville, FL 32223","(30.171789, -81.628996)",30.171789,-81.628996
HD-172,675 Nautica Dr,Jacksonville,FL,32218,HD,"675 Nautica Dr, Jacksonville, FL 32218","(30.4787308, -81.6368634)",30.4787308,-81.6368634
HD-173,1616 US Highway 41 NW,Jasper,FL,32052,HD,"1616 US Highway 41 NW, Jasper, FL 32052","(30.50848, -82.94622)",30.50848,-82.94622
HD-174,7401 State Rd 21,Keystone Heights,FL,32656,HD,"7401 State Rd 21, Keystone Heights, FL 32656","(29.790796, -82.027217)",29.790796,-82.027217
HD-175,504 W. Vine St.,Kissimmee,FL,34741,HD,"504 W. Vine St., Kissimmee, FL 34741","(28.3041235, -81.4090299)",28.3041235,-81.4090299
HD-176,342 Shinn Blvd,Lake Alfred,FL,33850,HD,"342 Shinn Blvd, Lake Alfred, FL 33850","(28.0888779, -81.7306423)",28.0888779,-81.7306423
HD-177,1205 E Main Street,Lake Butler,FL,32054,HD,"1205 E Main Street, Lake Butler, FL 32054","(30.0232607, -82.3238861)",30.0232607,-82.3238861
HD-178,279 W Duval St,Lake City,FL,32055,HD,"279 W Duval St, Lake City, FL 32055","(30.189772, -82.64015)",30.189772,-82.64015
HD-179,2609 W Us Highway 90,Lake City,FL,32055,HD,"2609 W Us Highway 90, Lake City, FL 32055","(30.180128, -82.6749329)",30.180128,-82.6749329
HD-180,2399 SE Baya Dr,Lake City,FL,32025,HD,"2399 SE Baya Dr, Lake City, FL 32025","(30.18457, -82.600214)",30.18457,-82.600214
HD-181,2050 W Memorial Blvd,Lakeland,FL,33815,HD,"2050 W Memorial Blvd, Lakeland, FL 33815","(28.0547086, -81.9813517)",28.0547086,-81.9813517
HD-182,43 E C 470,Lake Panasoffkee,FL,33538,HD,"43 E C 470, Lake Panasoffkee, FL 33538","(28.754235, -82.100486)",28.754235,-82.100486
HD-183,24 Pafford RD,Lamont,FL,32336,HD,"24 Pafford RD, Lamont, FL 32336","(30.473905, -83.891756)",30.473905,-83.891756
HD-184,802 S 14Th St,Leesburg,FL,34748,HD,"802 S 14Th St, Leesburg, FL 34748","(28.804055, -81.887488)",28.804055,-81.887488
HD-185,608 Ohio Ave S,Live Oak,FL,32064,HD,"608 Ohio Ave S, Live Oak, FL 32064","(30.283389, -82.987719)",30.283389,-82.987719
HD-186,1490 S 6th St,Macclenny,FL,32063,HD,"1490 S 6th St, Macclenny, FL 32063","(30.262336, -82.123407)",30.262336,-82.123407
HD-187,4652 E Highway 90,Marianna,FL,32446,HD,"4652 E Highway 90, Marianna, FL 32446","(30.770492, -85.207614)",30.770492,-85.207614
HD-188,3992 S Babcock St,Melbourne,FL,32901,HD,"3992 S Babcock St, Melbourne, FL 32901","(28.0500992, -80.6213565)",28.0500992,-80.6213565
HD-189,2730 Blanding Blvd,Middleburg,FL,32068,HD,"2730 Blanding Blvd, Middleburg, FL 32068","(30.0612509, -81.8760646)",30.0612509,-81.8760646
HD-190,6527 Hwy 90,Milton,FL,32570,HD,"6527 Hwy 90, Milton, FL 32570","(30.609789, -87.0579)",30.609789,-87.0579
HD-191,4440 Hwy. 46,Mims,FL,32754,HD,"4440 Hwy. 46, Mims, FL 32754","(28.666138, -80.87982)",28.666138,-80.87982
HD-192,810 N Us Hwy 27,Minneola,FL,34715,HD,"810 N Us Hwy 27, Minneola, FL 34715","(28.60097, -81.754783)",28.60097,-81.754783
HD-193,515 E Canal St,Mulberry,FL,33860,HD,"515 E Canal St, Mulberry, FL 33860","(27.894812, -81.969025)",27.894812,-81.969025
HD-194,24915 W Newberry Rd,Newberry,FL,32669,HD,"24915 W Newberry Rd, Newberry, FL 32669","(29.6464851, -82.6057299)",29.6464851,-82.6057299
HD-195,6155 SR 200,Ocala,FL,34476,HD,"6155 SR 200, Ocala, FL 34476","(29.113927, -82.222044)",29.113927,-82.222044
HD-196,908 Nw Pine Ave,Ocala,FL,34475,HD,"908 Nw Pine Ave, Ocala, FL 34475","(29.196157, -82.141918)",29.196157,-82.141918
HD-197,25807 SE US HWY. 19,Old Town,FL,32680,HD,"25807 SE US HWY. 19, Old Town, FL 32680","(29.601799, -82.984769)",29.601799,-82.984769
HD-198,5212 Silver Star Rd,Orlando,FL,32808,HD,"5212 Silver Star Rd, Orlando, FL 32808","(28.5780832, -81.4425265)",28.5780832,-81.4425265
HD-199,4200 Hwy 90,Pace,FL,32571,HD,"4200 Hwy 90, Pace, FL 32571","(30.603472, -87.148755)",30.603472,-87.148755
HD-200,3439 Highway 77,Panama City,FL,32405,HD,"3439 Highway 77, Panama City, FL 32405","(30.193331, -85.64987)",30.193331,-85.64987
HD-201,11769 Panama City Beach Pkwy,Panama City Beach,FL,32407,HD,"11769 Panama City Beach Pkwy, Panama City Beach, FL 32407","(30.1995875, -85.8191387)",30.1995875,-85.8191387
HD-202,8001 Pensacola Blvd,Pensacola,FL,32534,HD,"8001 Pensacola Blvd, Pensacola, FL 32534","(30.5116966, -87.2709935)",30.5116966,-87.2709935
HD-203,2500 Wilde Lake Blvd,Pensacola,FL,32526,HD,"2500 Wilde Lake Blvd, Pensacola, FL 32526","(30.519682, -87.314803)",30.519682,-87.314803
HD-204,805 N Navy Blvd,Pensacola,FL,32507,HD,"805 N Navy Blvd, Pensacola, FL 32507","(30.398418, -87.27753)",30.398418,-87.27753
HD-205,12275 Lillian Hwy,Pensacola,FL,32506,HD,"12275 Lillian Hwy, Pensacola, FL 32506","(30.4254554, -87.2918094)",30.4254554,-87.2918094
HD-206,7137 N 9Th Ave,Pensacola,FL,32504,HD,"7137 N 9Th Ave, Pensacola, FL 32504","(30.4985472, -87.1867979)",30.4985472,-87.1867979
HD-207,2046 S Byron Butler Pkwy,Perry,FL,32348,HD,"2046 S Byron Butler Pkwy, Perry, FL 32348","(30.098407, -83.583619)",30.098407,-83.583619
HD-208,1713 James Redman Pkwy,Plant City,FL,33563,HD,"1713 James Redman Pkwy, Plant City, FL 33563","(28.019785, -82.140013)",28.019785,-82.140013
HD-209,8407 Us Highway 19,Port Richey,FL,34668,HD,"8407 Us Highway 19, Port Richey, FL 34668","(28.2792033, -82.7187846)",28.2792033,-82.7187846
HD-210,100 W Jefferson St,Quincy,FL,32351,HD,"100 W Jefferson St, Quincy, FL 32351","(30.5855609, -84.602298)",30.5855609,-84.602298
HD-211,402 S Tamiami Trail,Ruskin,FL,33570,HD,"402 S Tamiami Trail, Ruskin, FL 33570","(27.721668, -82.43403)",27.721668,-82.43403
HD-212,3795 34th St N,Saint Petersburg,FL,33713,HD,"3795 34th St N, Saint Petersburg, FL 33713","(27.806367, -82.6794423)",27.806367,-82.6794423
HD-213,5690 W State Road 46,Sanford,FL,32771,HD,"5690 W State Road 46, Sanford, FL 32771","(28.811846, -81.364251)",28.811846,-81.364251
HD-214,3000 Us Highway 98 W,Santa Rosa,FL,32459,HD,"3000 Us Highway 98 W, Santa Rosa, FL 32459","(30.3745534, -86.2279751)",30.3745534,-86.2279751
HD-215,11705 E Us Highway 92,Seffner,FL,33584,HD,"11705 E Us Highway 92, Seffner, FL 33584","(28.001758, -82.30205)",28.001758,-82.30205
HD-216,435 S Temple Ave,Starke,FL,32091,HD,"435 S Temple Ave, Starke, FL 32091","(29.942046, -82.111535)",29.942046,-82.111535
HD-217,5818 N Monroe St,Tallahassee,FL,32303,HD,"5818 N Monroe St, Tallahassee, FL 32303","(30.4736011, -84.2935697)",30.4736011,-84.2935697
HD-218,1829 Capital Circle Ne,Tallahassee,FL,32308,HD,"1829 Capital Circle Ne, Tallahassee, FL 32308","(30.4679277, -84.2295829)",30.4679277,-84.2295829
HD-219,301 E Burleigh Blvd,Tavares,FL,32778,HD,"301 E Burleigh Blvd, Tavares, FL 32778","(28.816257, -81.725964)",28.816257,-81.725964
HD-220,6292 Commercial Way,Weeki Wachee,FL,34613,HD,"6292 Commercial Way, Weeki Wachee, FL 34613","(28.5215568, -82.5695662)",28.5215568,-82.5695662
HD-221,404 S Main St,Wildwood,FL,34785,HD,"404 S Main St, Wildwood, FL 34785","(28.849757, -82.045351)",28.849757,-82.045351
HD-222,549 State Highway 44,Wildwood,FL,34785,HD,"549 State Highway 44, Wildwood, FL 34785","(28.874124, -82.093958)",28.874124,-82.093958
HD-223,306 W Noble Ave,Williston,FL,32696,HD,"306 W Noble Ave, Williston, FL 32696","(29.386429, -82.4524349)",29.386429,-82.4524349
HD-224,15821 Hwy 231 N,Youngstown,FL,32466,HD,"15821 Hwy 231 N, Youngstown, FL 32466","(30.432429, -85.427999)",30.432429,-85.427999
HD-225,36502 State Rd 54,Zephyrhills,FL,33541,HD,"36502 State Rd 54, Zephyrhills, FL 33541","(28.229859, -82.213243)",28.229859,-82.213243
HD-226,1097 Highway 92,Acworth,GA,30102,HD,"1097 Highway 92, Acworth, GA 30102","(34.082988, -84.654617)",34.082988,-84.654617
HD-227,101 Princeton Blvd,Adairsville,GA,30103,HD,"101 Princeton Blvd, Adairsville, GA 30103","(34.3742603, -84.9139857)",34.3742603,-84.9139857
HD-228,807 W 4Th St,Adel,GA,31620,HD,"807 W 4Th St, Adel, GA 31620","(31.1340279, -83.4342904)",31.1340279,-83.4342904
HD-229,2324 E Oglethorpe Blvd,Albany,GA,31705,HD,"2324 E Oglethorpe Blvd, Albany, GA 31705","(31.5735941, -84.0972943)",31.5735941,-84.0972943
HD-230,436 N Slappey Blvd,Albany,GA,31701,HD,"436 N Slappey Blvd, Albany, GA 31701","(31.5820914, -84.1763643)",31.5820914,-84.1763643
HD-231,922 S PIERCE ST,Alma,GA,31510,HD,"922 S PIERCE ST, Alma, GA 31510","(31.556054, -82.466899)",31.556054,-82.466899
HD-232,220 Tripp St,Americus,GA,31709,HD,"220 Tripp St, Americus, GA 31709","(32.071963, -84.2173876)",32.071963,-84.2173876
HD-233,2516 Bouldercrest Rd Se,Atlanta,GA,30316,HD,"2516 Bouldercrest Rd Se, Atlanta, GA 30316","(33.688231, -84.310883)",33.688231,-84.310883
HD-234,3309 Peach Orchard Rd,Augusta,GA,30906,HD,"3309 Peach Orchard Rd, Augusta, GA 30906","(33.4025943, -82.0254631)",33.4025943,-82.0254631
HD-235,1000 E Shotwell St,Bainbridge,GA,39819,HD,"1000 E Shotwell St, Bainbridge, GA 39819","(30.903878, -84.563494)",30.903878,-84.563494
HD-236,653 South Main St,Baxley,GA,31513,HD,"653 South Main St, Baxley, GA 31513","(31.7734185, -82.3505094)",31.7734185,-82.3505094
HD-237,99 Sandy Run Rd.,Bonaire,GA,31005,HD,"99 Sandy Run Rd., Bonaire, GA 31005","(32.568273, -83.595663)",32.568273,-83.595663
HD-238,515 Alabama Ave S,Bremen,GA,30110,HD,"515 Alabama Ave S, Bremen, GA 30110","(33.717462, -85.143606)",33.717462,-85.143606
HD-239,4428 New Jesup Hwy,Brunswick,GA,31520,HD,"4428 New Jesup Hwy, Brunswick, GA 31520","(31.206302, -81.50945)",31.206302,-81.50945
HD-240,1520 Buford Hwy,Buford,GA,30518,HD,"1520 Buford Hwy, Buford, GA 30518","(34.087036, -84.023775)",34.087036,-84.023775
HD-241,242 Hwy 49,Byron,GA,31008,HD,"242 Hwy 49, Byron, GA 31008","(32.652868, -83.754944)",32.652868,-83.754944
HD-242,98 U S Highway 84,Cairo,GA,39828,HD,"98 U S Highway 84, Cairo, GA 39828","(30.886107, -84.20647)",30.886107,-84.20647
HD-243,2284 Us 41 Hwy Nw,Calhoun,GA,30701,HD,"2284 Us 41 Hwy Nw, Calhoun, GA 30701","(34.448355, -84.935604)",34.448355,-84.935604
HD-244,161 Marietta Hwy,Canton,GA,30114,HD,"161 Marietta Hwy, Canton, GA 30114","(34.2428811, -84.4948631)",34.2428811,-84.4948631
HD-245,1375 S Park St,Carrollton,GA,30117,HD,"1375 S Park St, Carrollton, GA 30117","(33.5531778, -85.0734804)",33.5531778,-85.0734804
HD-246,1099 North Third St,Chatsworth,GA,30705,HD,"1099 North Third St, Chatsworth, GA 30705","(34.786236, -84.771641)",34.786236,-84.771641
HD-247,12876 N. Highway 27,Chickamauga,GA,30707,HD,"12876 N. Highway 27, Chickamauga, GA 30707","(34.873451, -85.269174)",34.873451,-85.269174
HD-248,226 W Crawford St,Colquitt,GA,39837,HD,"226 W Crawford St, Colquitt, GA 39837","(31.169867, -84.729446)",31.169867,-84.729446
HD-249,3848 St Marys Rd,Columbus,GA,31906,HD,"3848 St Marys Rd, Columbus, GA 31906","(32.4471733, -84.9324942)",32.4471733,-84.9324942
HD-250,2501 Airport Thruway,Columbus,GA,31904,HD,"2501 Airport Thruway, Columbus, GA 31904","(32.5195997, -84.9568352)",32.5195997,-84.9568352
HD-251,44 Homer Rd,Commerce,GA,30529,HD,"44 Homer Rd, Commerce, GA 30529","(34.2065529, -83.4619427)",34.2065529,-83.4619427
HD-252,2930 Highway 138 Sw,Conyers,GA,30094,HD,"2930 Highway 138 Sw, Conyers, GA 30094","(33.618653, -84.082914)",33.618653,-84.082914
HD-253,1702 E 16th Ave,Cordele,GA,31015,HD,"1702 E 16th Ave, Cordele, GA 31015","(31.9615559, -83.7606181)",31.9615559,-83.7606181
HD-254,3112 Hwy 278 W,Covington,GA,30014,HD,"3112 Hwy 278 W, Covington, GA 30014","(33.602702, -83.860061)",33.602702,-83.860061
HD-255,125 W Maple St,Cumming,GA,30040,HD,"125 W Maple St, Cumming, GA 30040","(34.2064218, -84.1413062)",34.2064218,-84.1413062
HD-256,1301 Glenwood Ave,Dalton,GA,30721,HD,"1301 Glenwood Ave, Dalton, GA 30721","(34.788712, -84.962186)",34.788712,-84.962186
HD-257,580 E Walnut Ave,Dalton,GA,30721,HD,"580 E Walnut Ave, Dalton, GA 30721","(34.7615119, -84.9580649)",34.7615119,-84.9580649
HD-258,350 General Daniel Ave N,Danielsville,GA,30633,HD,"350 General Daniel Ave N, Danielsville, GA 30633","(34.12965, -83.217985)",34.12965,-83.217985
HD-259,899 Forrester Dr Se,Dawson,GA,39842,HD,"899 Forrester Dr Se, Dawson, GA 39842","(31.761484, -84.437714)",31.761484,-84.437714
HD-260,310 E 3Rd St,Donalsonville,GA,39845,HD,"310 E 3Rd St, Donalsonville, GA 39845","(31.034679, -84.86234)",31.034679,-84.86234
HD-261,1392 Bowens Mill Rd Sw,Douglas,GA,31533,HD,"1392 Bowens Mill Rd Sw, Douglas, GA 31533","(31.4878688, -82.8517865)",31.4878688,-82.8517865
HD-262,1208 Industrial Blvd,East Ellijay,GA,30540,HD,"1208 Industrial Blvd, East Ellijay, GA 30540","(34.684716, -84.4744385)",34.684716,-84.4744385
HD-263,3062 Anvil Block Rd,Ellenwood,GA,30294,HD,"3062 Anvil Block Rd, Ellenwood, GA 30294","(33.633812, -84.290658)",33.633812,-84.290658
HD-264,4360 WASHINGTON RD,Evans,GA,30809,HD,"4360 WASHINGTON RD, Evans, GA 30809","(33.5403366, -82.1329038)",33.5403366,-82.1329038
HD-265,975 N Glynn St,Fayetteville,GA,30214,HD,"975 N Glynn St, Fayetteville, GA 30214","(33.468313, -84.446657)",33.468313,-84.446657
HD-266,260 N Lee St,Forsyth,GA,31029,HD,"260 N Lee St, Forsyth, GA 31029","(33.0410093, -83.9401453)",33.0410093,-83.9401453
HD-267,2154 Franklin Parkway,Franklin,GA,30217,HD,"2154 Franklin Parkway, Franklin, GA 30217","(33.28063, -85.106328)",33.28063,-85.106328
HD-268,1086 Battlefield Parkway,Ft Oglethorpe,GA,30742,HD,"1086 Battlefield Parkway, Ft Oglethorpe, GA 30742","(34.9526941, -85.2450039)",34.9526941,-85.2450039
HD-269,Sonny Perdue Dr. And Dean Forrest Rd,Garden City,GA,31408,HD,"Sonny Perdue Dr. And Dean Forrest Rd, Garden City, GA 31408","(32.070738, -81.200642)",32.070738,-81.200642
HD-270,1619 N Expressway,Griffin,GA,30223,HD,"1619 N Expressway, Griffin, GA 30223","(33.2573666, -84.2884003)",33.2573666,-84.2884003
HD-271,4305 WRIGHTSBORO ROAD,GROVETOWN,GA,30813,HD,"4305 WRIGHTSBORO ROAD, GROVETOWN, GA 30813","(33.4544605, -82.208077)",33.4544605,-82.208077
HD-272,310 Milledgeville Road,Harlem,GA,30814,HD,"310 Milledgeville Road, Harlem, GA 30814","(33.4139333, -82.3103089)",33.4139333,-82.3103089
HD-273,341 Broad St,Hawkinsville,GA,31036,HD,"341 Broad St, Hawkinsville, GA 31036","(32.2822093, -83.4639182)",32.2822093,-83.4639182
HD-274,21 E Coffee St,Hazlehurst,GA,31539,HD,"21 E Coffee St, Hazlehurst, GA 31539","(31.8685772, -82.5960774)",31.8685772,-82.5960774
HD-275,3696 WINDSOR SPRING RD,HEPHZIBAH,GA,30815,HD,"3696 WINDSOR SPRING RD, HEPHZIBAH, GA 30815","(33.337877, -82.090662)",33.337877,-82.090662
HD-276,1090 North 1st St,Jesup,GA,31545,HD,"1090 North 1st St, Jesup, GA 31545","(31.6161102, -81.8744432)",31.6161102,-81.8744432
HD-277,813 N Main St,La Fayette,GA,30728,HD,"813 N Main St, La Fayette, GA 30728","(34.71903, -85.280017)",34.71903,-85.280017
HD-278,603 S Valdosta Rd,Lakeland,GA,31635,HD,"603 S Valdosta Rd, Lakeland, GA 31635","(31.0351247, -83.0729592)",31.0351247,-83.0729592
HD-279,7212 LAKES BLVD,LAKE PARK,GA,31636,HD,"7212 LAKES BLVD, LAKE PARK, GA 31636","(30.684691, -83.205542)",30.684691,-83.205542
HD-280,14010 Jones St,Lavonia,GA,30553,HD,"14010 Jones St, Lavonia, GA 30553","(34.4479797, -83.1249344)",34.4479797,-83.1249344
HD-281,258 Us 19 S,Leesburg,GA,31763,HD,"258 Us 19 S, Leesburg, GA 31763","(31.725445, -84.172223)",31.725445,-84.172223
HD-282,112 ELM STREET,LINCOLNTON,GA,30817,HD,"112 ELM STREET, LINCOLNTON, GA 30817","(33.786258, -82.477584)",33.786258,-82.477584
HD-283,940 Thornton Rd,Lithia Springs,GA,30122,HD,"940 Thornton Rd, Lithia Springs, GA 30122","(33.7967857, -84.6421315)",33.7967857,-84.6421315
HD-284,4850 Floyd Rd Sw,Mableton,GA,30126,HD,"4850 Floyd Rd Sw, Mableton, GA 30126","(33.8358272, -84.5763408)",33.8358272,-84.5763408
HD-285,1500 Monticello Rd,Madison,GA,30650,HD,"1500 Monticello Rd, Madison, GA 30650","(33.561289, -83.498909)",33.561289,-83.498909
HD-286,182 Keys Ferry St,Mcdonough,GA,30253,HD,"182 Keys Ferry St, Mcdonough, GA 30253","(33.4470125, -84.1399198)",33.4470125,-84.1399198
HD-287,1575 Highway 20 W,Mcdonough,GA,30253,HD,"1575 Highway 20 W, Mcdonough, GA 30253","(33.419064, -84.190429)",33.419064,-84.190429
HD-288,7000 Ruffie Way,Midland,GA,31820,HD,"7000 Ruffie Way, Midland, GA 31820","(32.5391049, -84.8684266)",32.5391049,-84.8684266
HD-289,315 S Broad St,Monroe,GA,30655,HD,"315 S Broad St, Monroe, GA 30655","(33.7920523, -83.7127972)",33.7920523,-83.7127972
HD-290,1729 1st Ave Se,Moultrie,GA,31768,HD,"1729 1st Ave Se, Moultrie, GA 31768","(31.1770582, -83.7631914)",31.1770582,-83.7631914
HD-291,620 South Davis,Nashville,GA,31639,HD,"620 South Davis, Nashville, GA 31639","(31.199281, -83.2506412)",31.199281,-83.2506412
HD-292,231 Temple Ave,Newnan,GA,30263,HD,"231 Temple Ave, Newnan, GA 30263","(33.385442, -84.817039)",33.385442,-84.817039
HD-293,4201 Sharpsburg Mccullum Rd,Newnan,GA,30265,HD,"4201 Sharpsburg Mccullum Rd, Newnan, GA 30265","(33.443308, -84.694107)",33.443308,-84.694107
HD-294,4538 Oakwood Rd,Oakwood,GA,30566,HD,"4538 Oakwood Rd, Oakwood, GA 30566","(34.225483, -83.8684727)",34.225483,-83.8684727
HD-295,135 Curry St Ne,Pelham,GA,31779,HD,"135 Curry St Ne, Pelham, GA 31779","(31.1299298, -84.1503135)",31.1299298,-84.1503135
HD-296,100 Governor Treutlen Rd,Pooler,GA,31322,HD,"100 Governor Treutlen Rd, Pooler, GA 31322","(32.112328, -81.240581)",32.112328,-81.240581
HD-297,5486 Alabama Hwy,Ringgold,GA,30736,HD,"5486 Alabama Hwy, Ringgold, GA 30736","(34.9120809, -85.1262014)",34.9120809,-85.1262014
HD-298,3110 Cedartown Hwy Sw,Rome,GA,30161,HD,"3110 Cedartown Hwy Sw, Rome, GA 30161","(34.173488, -85.207881)",34.173488,-85.207881
HD-299,1204 Turner Mccall Blvd,Rome,GA,30161,HD,"1204 Turner Mccall Blvd, Rome, GA 30161","(34.2578408, -85.1648804)",34.2578408,-85.1648804
HD-300,300 Mcfarland Ave,Rossville,GA,30741,HD,"300 Mcfarland Ave, Rossville, GA 30741","(34.982051, -85.287731)",34.982051,-85.287731
HD-301,1031 Franklin Springs St,Royston,GA,30662,HD,"1031 Franklin Springs St, Royston, GA 30662","(34.2850556, -83.1278033)",34.2850556,-83.1278033
HD-302,195 Walmart Circle,Sandersville,GA,31082,HD,"195 Walmart Circle, Sandersville, GA 31082","(32.974982, -82.840564)",32.974982,-82.840564
HD-303,6671 Roswell Rd Ne,Sandy Springs,GA,30328,HD,"6671 Roswell Rd Ne, Sandy Springs, GA 30328","(33.884204, -84.380524)",33.884204,-84.380524
HD-304,1 GATEWAY BLVD S,SAVANNAH,GA,31419,HD,"1 GATEWAY BLVD S, SAVANNAH, GA 31419","(32.000353, -81.283963)",32.000353,-81.283963
HD-305,5259 Stone Mountain Hwy,Stone Mountain,GA,30087,HD,"5259 Stone Mountain Hwy, Stone Mountain, GA 30087","(33.823259, -84.113158)",33.823259,-84.113158
HD-306,501 S MAIN ST,SWAINSBORO,GA,30401,HD,"501 S MAIN ST, SWAINSBORO, GA 30401","(32.5871032, -82.3250561)",32.5871032,-82.3250561
HD-307,587 Carrollton Rd,Temple,GA,30179,HD,"587 Carrollton Rd, Temple, GA 30179","(33.72127, -85.028716)",33.72127,-85.028716
HD-308,624 N Church St,Thomaston,GA,30286,HD,"624 N Church St, Thomaston, GA 30286","(32.8965817, -84.327803)",32.8965817,-84.327803
HD-309,1440 Remington Ave,Thomasville,GA,31792,HD,"1440 Remington Ave, Thomasville, GA 31792","(30.852014, -83.948793)",30.852014,-83.948793
HD-310,178 Southwell Blvd,Tifton,GA,31794,HD,"178 Southwell Blvd, Tifton, GA 31794","(31.4156976, -83.5031442)",31.4156976,-83.5031442
HD-311,318 S Virginia Ave,Tifton,GA,31794,HD,"318 S Virginia Ave, Tifton, GA 31794","(31.4511536, -83.5281454)",31.4511536,-83.5281454
HD-312,1002 Big A Rd,Toccoa,GA,30577,HD,"1002 Big A Rd, Toccoa, GA 30577","(34.567596, -83.302413)",34.567596,-83.302413
HD-313,Highway 136 W. Killian,Trenton,GA,30752,HD,"Highway 136 W. Killian, Trenton, GA 30752","(34.865147, -85.508667)",34.865147,-85.508667
HD-314,2901 N Ashley St,Valdosta,GA,31602,HD,"2901 N Ashley St, Valdosta, GA 31602","(30.8737907, -83.2909741)",30.8737907,-83.2909741
HD-315,816 S Patterson St,Valdosta,GA,31601,HD,"816 S Patterson St, Valdosta, GA 31601","(30.821065, -83.273718)",30.821065,-83.273718
HD-316,161 Commerce Dr,Villa Rica,GA,30180,HD,"161 Commerce Dr, Villa Rica, GA 30180","(33.7255822, -84.9408075)",33.7255822,-84.9408075
HD-317,2609 Plant Ave,Ware,GA,31501,HD,"2609 Plant Ave, Ware, GA 31501","(31.2323164, -82.3305101)",31.2323164,-82.3305101
HD-318,2829 Watson Blvd,Warner Robins,GA,31093,HD,"2829 Watson Blvd, Warner Robins, GA 31093","(32.6179255, -83.6813065)",32.6179255,-83.6813065
HD-319,113 N BROAD ST,WINDER,GA,30680,HD,"113 N BROAD ST, WINDER, GA 30680","(33.994342, -83.7172059)",33.994342,-83.7172059
HD-320,1118 S Clinton,Albia,IA,52531,HD,"1118 S Clinton, Albia, IA 52531","(41.017032, -92.809191)",41.017032,-92.809191
HD-321,1510 Sw Tradition Dr,Ankeny,IA,50023,HD,"1510 Sw Tradition Dr, Ankeny, IA 50023","(41.699767, -93.621335)",41.699767,-93.621335
HD-322,1930 State St,Bettendorf,IA,52722,HD,"1930 State St, Bettendorf, IA 52722","(41.5253978, -90.5055027)",41.5253978,-90.5055027
HD-323,907 Lawrence Dr,Burlington,IA,52601,HD,"907 Lawrence Dr, Burlington, IA 52601","(40.8001903, -91.1401309)",40.8001903,-91.1401309
HD-324,1981 Blairs Ferry Rd,Cedar Rapids,IA,52402,HD,"1981 Blairs Ferry Rd, Cedar Rapids, IA 52402","(42.0347035, -91.6675652)",42.0347035,-91.6675652
HD-325,3505 29Th Ave Sw,Cedar Rapids,IA,52404,HD,"3505 29Th Ave Sw, Cedar Rapids, IA 52404","(41.9491303, -91.7170853)",41.9491303,-91.7170853
HD-326,100 E Maple St,Centerville,IA,52544,HD,"100 E Maple St, Centerville, IA 52544","(40.732444, -92.874028)",40.732444,-92.874028
HD-327,2002 Court Ave,Chariton,IA,50049,HD,"2002 Court Ave, Chariton, IA 50049","(41.014503, -93.3254016)",41.014503,-93.3254016
HD-328,329 Central Avenue West,Clarion,IA,50525,HD,"329 Central Avenue West, Clarion, IA 50525","(42.731737, -93.73617)",42.731737,-93.73617
HD-329,117 S 2nd St,Clinton,IA,52732,HD,"117 S 2nd St, Clinton, IA 52732","(41.8453601, -90.1881722)",41.8453601,-90.1881722
HD-330,107 2Nd St,Coralville,IA,52241,HD,"107 2Nd St, Coralville, IA 52241","(41.6696472, -91.5662377)",41.6696472,-91.5662377
HD-331,3200 S Expressway St,Council Bluffs,IA,51501,HD,"3200 S Expressway St, Council Bluffs, IA 51501","(41.227811, -95.851436)",41.227811,-95.851436
HD-332,807 W Taylor,Creston,IA,50801,HD,"807 W Taylor, Creston, IA 50801","(41.048913, -94.37315)",41.048913,-94.37315
HD-333,5232 Brady Street,Davenport,IA,52806,HD,"5232 Brady Street, Davenport, IA 52806","(41.5735644, -90.569399)",41.5735644,-90.569399
HD-334,1715 Division St,Davenport,IA,52804,HD,"1715 Division St, Davenport, IA 52804","(41.5370822, -90.6010568)",41.5370822,-90.6010568
HD-335,8755 University Ave,Des Moines,IA,50325,HD,"8755 University Ave, Des Moines, IA 50325","(41.6003863, -93.7671746)",41.6003863,-93.7671746
HD-336,1449 E Euclid Ave,Des Moines,IA,50316,HD,"1449 E Euclid Ave, Des Moines, IA 50316","(41.6276394, -93.5990218)",41.6276394,-93.5990218
HD-337,915 Army Post Rd,Des Moines,IA,50315,HD,"915 Army Post Rd, Des Moines, IA 50315","(41.5265627, -93.6268621)",41.5265627,-93.6268621
HD-338,2100 Twin Valley Dr,Dubuque,IA,52003,HD,"2100 Twin Valley Dr, Dubuque, IA 52003","(42.459493, -90.673145)",42.459493,-90.673145
HD-339,105 S 9Th Ave,Eldridge,IA,52748,HD,"105 S 9Th Ave, Eldridge, IA 52748","(41.6545834, -90.5718296)",41.6545834,-90.5718296
HD-340,1400 Industrial Park Road,Ellsworth,IA,50075,HD,"1400 Industrial Park Road, Ellsworth, IA 50075","(42.3155314, -93.5720632)",42.3155314,-93.5720632
HD-341,1736 Central Ave,Estherville,IA,51334,HD,"1736 Central Ave, Estherville, IA 51334","(43.403486, -94.855604)",43.403486,-94.855604
HD-342,6 S 15Th St,Fort Dodge,IA,50501,HD,"6 S 15Th St, Fort Dodge, IA 50501","(42.5036025, -94.1776456)",42.5036025,-94.1776456
HD-343,1431 Avenue H,Fort Madison,IA,52627,HD,"1431 Avenue H, Fort Madison, IA 52627","(40.6302274, -91.3233697)",40.6302274,-91.3233697
HD-344,605 Highway 18 West,Garner,IA,50438,HD,"605 Highway 18 West, Garner, IA 50438","(43.104706, -93.714902)",43.104706,-93.714902
HD-345,10 3rd Street Sw,Hampton,IA,50441,HD,"10 3rd Street Sw, Hampton, IA 50441","(42.7416206, -93.2110251)",42.7416206,-93.2110251
HD-346,2010 Indorf Avenue,Holstein,IA,51025,HD,"2010 Indorf Avenue, Holstein, IA 51025","(42.4740684, -95.5441207)",42.4740684,-95.5441207
HD-347,1203 10Th Ave N,Humboldt,IA,50548,HD,"1203 10Th Ave N, Humboldt, IA 50548","(42.7318857, -94.2587439)",42.7318857,-94.2587439
HD-348,300 East Trail Ridge Ave,Indianola,IA,50125,HD,"300 East Trail Ridge Ave, Indianola, IA 50125","(41.3842808, -93.5580203)",41.3842808,-93.5580203
HD-349,1405 S Lincoln St,Knoxville,IA,50138,HD,"1405 S Lincoln St, Knoxville, IA 50138","(41.3075764, -93.1089427)",41.3075764,-93.1089427
HD-350,1205 Hawkeye Ave Sw,Le Mars,IA,51031,HD,"1205 Hawkeye Ave Sw, Le Mars, IA 51031","(42.7808739, -96.1828427)",42.7808739,-96.1828427
HD-351,205 W Main,Manchester,IA,52057,HD,"205 W Main, Manchester, IA 52057","(42.483844, -91.464206)",42.483844,-91.464206
HD-352,902 S Center St,Marshalltown,IA,50158,HD,"902 S Center St, Marshalltown, IA 50158","(42.0378684, -92.9127253)",42.0378684,-92.9127253
HD-353,515 S Delaware,Mason City,IA,50401,HD,"515 S Delaware, Mason City, IA 50401","(43.147008, -93.199811)",43.147008,-93.199811
HD-354,102 Highway 1 S,Mount Vernon,IA,52314,HD,"102 Highway 1 S, Mount Vernon, IA 52314","(41.920729, -91.41848)",41.920729,-91.41848
HD-355,905 E Washington St,Mt Pleasant,IA,52641,HD,"905 E Washington St, Mt Pleasant, IA 52641","(40.9643163, -91.5412967)",40.9643163,-91.5412967
HD-356,705 Grandview Ave,Muscatine,IA,52761,HD,"705 Grandview Ave, Muscatine, IA 52761","(41.4094133, -91.0630466)",41.4094133,-91.0630466
HD-357,1205 W 19Th St S,Newton,IA,50208,HD,"1205 W 19Th St S, Newton, IA 50208","(41.685615, -93.078672)",41.685615,-93.078672
HD-358,809 Albany Place,Orange City,IA,51041,HD,"809 Albany Place, Orange City, IA 51041","(42.9973198, -96.0567082)",42.9973198,-96.0567082
HD-359,1787 Venture Dr,Ottumwa,IA,52501,HD,"1787 Venture Dr, Ottumwa, IA 52501","(41.0166917, -92.4508339)",41.0166917,-92.4508339
HD-360,505 2Nd Ave,Sheldon,IA,51201,HD,"505 2Nd Ave, Sheldon, IA 51201","(43.1857096, -95.8541292)",43.1857096,-95.8541292
HD-361,660 N Main,Sioux Center,IA,51250,HD,"660 N Main, Sioux Center, IA 51250","(43.083878, -96.175619)",43.083878,-96.175619
HD-362,910 Gordon Dr,Sioux City,IA,51101,HD,"910 Gordon Dr, Sioux City, IA 51101","(42.4894711, -96.3983007)",42.4894711,-96.3983007
HD-363,4440 Sergeant Road,Sioux City,IA,51106,HD,"4440 Sergeant Road, Sioux City, IA 51106","(42.4473939, -96.3487794)",42.4473939,-96.3487794
HD-364,704 South Grand,Spencer,IA,51301,HD,"704 South Grand, Spencer, IA 51301","(43.1314354, -95.143878)",43.1314354,-95.143878
HD-365,605 Flindt Drive,Storm Lake,IA,50588,HD,"605 Flindt Drive, Storm Lake, IA 50588","(42.6447198, -95.1877222)",42.6447198,-95.1877222
HD-366,601 Cedar St.,Tipton,IA,52772,HD,"601 Cedar St., Tipton, IA 52772","(41.77119, -91.128516)",41.77119,-91.128516
HD-367,118 W Highway 30,Toledo,IA,52342,HD,"118 W Highway 30, Toledo, IA 52342","(41.985688, -92.578617)",41.985688,-92.578617
HD-368,805 Franklin St,Waterloo,IA,50703,HD,"805 Franklin St, Waterloo, IA 50703","(42.4991913, -92.3307938)",42.4991913,-92.3307938
HD-369,1410 Flammang Dr,Waterloo,IA,50702,HD,"1410 Flammang Dr, Waterloo, IA 50702","(42.4599282, -92.3292266)",42.4599282,-92.3292266
HD-370,503 Rossville Rd,Waukon,IA,52172,HD,"503 Rossville Rd, Waukon, IA 52172","(43.2650984, -91.4747812)",43.2650984,-91.4747812
HD-371,117 Hwy 150 North,West Union,IA,52175,HD,"117 Hwy 150 North, West Union, IA 52175","(42.937632, -91.814216)",42.937632,-91.814216
HD-372,1007 N John Wayne Dr,Winterset,IA,50273,HD,"1007 N John Wayne Dr, Winterset, IA 50273","(41.343195, -94.013348)",41.343195,-94.013348
HD-373,140 E Vienna St,Anna,IL,62906,HD,"140 E Vienna St, Anna, IL 62906","(37.4597039, -89.2438779)",37.4597039,-89.2438779
HD-374,5515 S Adams St,Bartonville,IL,61607,HD,"5515 S Adams St, Bartonville, IL 61607","(40.6543382, -89.6492272)",40.6543382,-89.6492272
HD-375,10095 Us Hwy 67,Beardstown,IL,62618,HD,"10095 Us Hwy 67, Beardstown, IL 62618","(40.006188, -90.439752)",40.006188,-90.439752
HD-376,2 S Belt E,Belleville,IL,62220,HD,"2 S Belt E, Belleville, IL 62220","(38.502379, -89.984141)",38.502379,-89.984141
HD-377,1617 N Belt West,Belleville,IL,62226,HD,"1617 N Belt West, Belleville, IL 62226","(38.5418922, -90.0016088)",38.5418922,-90.0016088
HD-378,2516 Green Mount Commons Dr,Belleville,IL,62221,HD,"2516 Green Mount Commons Dr, Belleville, IL 62221","(38.5204742, -89.9273362)",38.5204742,-89.9273362
HD-379,629 W Main St,Benton,IL,62812,HD,"629 W Main St, Benton, IL 62812","(37.99687, -88.926111)",37.99687,-88.926111
HD-380,8800 Old US Highway 50,Breese,IL,62230,HD,"8800 Old US Highway 50, Breese, IL 62230","(38.611125, -89.543157)",38.611125,-89.543157
HD-381,220 Green St,Bushnell,IL,61422,HD,"220 Green St, Bushnell, IL 61422","(40.5451427, -90.5039179)",40.5451427,-90.5039179
HD-382,638 N Main St,Canton,IL,61520,HD,"638 N Main St, Canton, IL 61520","(40.5634111, -90.0349261)",40.5634111,-90.0349261
HD-383,454 N Broad St,Carlinville,IL,62626,HD,"454 N Broad St, Carlinville, IL 62626","(39.2847528, -89.8817356)",39.2847528,-89.8817356
HD-384,1251 12th St,Carlyle,IL,62231,HD,"1251 12th St, Carlyle, IL 62231","(38.6173936, -89.3731024)",38.6173936,-89.3731024
HD-385,1308 S Division St,Carterville,IL,62918,HD,"1308 S Division St, Carterville, IL 62918","(37.7475358, -89.0770768)",37.7475358,-89.0770768
HD-386,123 N. Madison,Carthage,IL,62321,HD,"123 N. Madison, Carthage, IL 62321","(40.42417, -91.136839)",40.42417,-91.136839
HD-387,8850 Petroff Dr,Caseyville,IL,62232,HD,"8850 Petroff Dr, Caseyville, IL 62232","(38.615528, -90.043991)",38.615528,-90.043991
HD-388,750 W Broadway,Centralia,IL,62801,HD,"750 W Broadway, Centralia, IL 62801","(38.5299749, -89.1474147)",38.5299749,-89.1474147
HD-389,1806 W Bradley Ave,Champaign,IL,61821,HD,"1806 W Bradley Ave, Champaign, IL 61821","(40.127515, -88.2772066)",40.127515,-88.2772066
HD-390,331 N Main St,Chatham,IL,62629,HD,"331 N Main St, Chatham, IL 62629","(39.6786147, -89.7051419)",39.6786147,-89.7051419
HD-391,217 W Holmes St,Chester,IL,62233,HD,"217 W Holmes St, Chester, IL 62233","(37.9148957, -89.8220649)",37.9148957,-89.8220649
HD-392,108 N 4th St,Chillicothe,IL,61523,HD,"108 N 4th St, Chillicothe, IL 61523","(40.9093953, -89.491677)",40.9093953,-89.491677
HD-393,307 S Grant St,Clinton,IL,61727,HD,"307 S Grant St, Clinton, IL 61727","(40.1501973, -88.9641436)",40.1501973,-88.9641436
HD-394,519 Belt Line Rd,Collinsville,IL,62234,HD,"519 Belt Line Rd, Collinsville, IL 62234","(38.6910845, -89.9756433)",38.6910845,-89.9756433
HD-395,15 W Fairchild St,Danville,IL,61832,HD,"15 W Fairchild St, Danville, IL 61832","(40.1385048, -87.632833)",40.1385048,-87.632833
HD-396,1080 W Eldorado St,Decatur,IL,62522,HD,"1080 W Eldorado St, Decatur, IL 62522","(39.8456238, -88.9722946)",39.8456238,-88.9722946
HD-397,3925 County Fair Drive,Decatur,IL,62526,HD,"3925 County Fair Drive, Decatur, IL 62526","(39.883896, -88.94589)",39.883896,-88.94589
HD-398,619 S Galena St,Dixon,IL,61021,HD,"619 S Galena St, Dixon, IL 61021","(41.838699, -89.480647)",41.838699,-89.480647
HD-399,322 S Washington St,Du Quoin,IL,62832,HD,"322 S Washington St, Du Quoin, IL 62832","(37.9588969, -89.2333786)",37.9588969,-89.2333786
HD-400,12 W Northbrook Dr,Dwight,IL,60420,HD,"12 W Northbrook Dr, Dwight, IL 60420","(41.11301, -88.412408)",41.11301,-88.412408
HD-401,4008 Kennedy Dr,East Moline,IL,61244,HD,"4008 Kennedy Dr, East Moline, IL 61244","(41.4925978, -90.4560172)",41.4925978,-90.4560172
HD-402,101 N Main St,East Peoria,IL,61611,HD,"101 N Main St, East Peoria, IL 61611","(40.666713, -89.579477)",40.666713,-89.579477
HD-403,1505 W Fayette Ave,Effingham,IL,62401,HD,"1505 W Fayette Ave, Effingham, IL 62401","(39.1203369, -88.5606429)",39.1203369,-88.5606429
HD-404,1205 Us Highway 45 N,Eldorado,IL,62930,HD,"1205 Us Highway 45 N, Eldorado, IL 62930","(37.805059, -88.447731)",37.805059,-88.447731
HD-405,507 W Center St,Eureka,IL,61530,HD,"507 W Center St, Eureka, IL 61530","(40.721156, -89.278241)",40.721156,-89.278241
HD-406,1413 Knox Highway 9,Galesburg,IL,61401,HD,"1413 Knox Highway 9, Galesburg, IL 61401","(40.924564, -90.297662)",40.924564,-90.297662
HD-407,913 East Main,Galesburg,IL,61401,HD,"913 East Main, Galesburg, IL 61401","(40.9478408, -90.3564019)",40.9478408,-90.3564019
HD-408,2163 S Oakwood Ave,Geneseo,IL,61254,HD,"2163 S Oakwood Ave, Geneseo, IL 61254","(41.4335745, -90.1581499)",41.4335745,-90.1581499
HD-409,"4207 S, Il-159",Glen Carbon,IL,62034,HD,"4207 S, Il-159, Glen Carbon, IL 62034","(38.74838, -89.98316)",38.74838,-89.98316
HD-410,2720 Godfrey Rd,Godfrey,IL,62035,HD,"2720 Godfrey Rd, Godfrey, IL 62035","(38.9235779, -90.1922695)",38.9235779,-90.1922695
HD-411,3249 W Chain Of Rocks,Granite City,IL,62040,HD,"3249 W Chain Of Rocks, Granite City, IL 62040","(38.761996, -90.120502)",38.761996,-90.120502
HD-412,700 E Poplar,Harrisburg,IL,62946,HD,"700 E Poplar, Harrisburg, IL 62946","(37.738868, -88.56862)",37.738868,-88.56862
HD-413,401 W Dearborn St,Havana,IL,62644,HD,"401 W Dearborn St, Havana, IL 62644","(40.2936459, -90.0654911)",40.2936459,-90.0654911
HD-414,615 S Park Ave,Herrin,IL,62948,HD,"615 S Park Ave, Herrin, IL 62948","(37.7976364, -89.0277951)",37.7976364,-89.0277951
HD-415,12620 State Rte 143,Highland,IL,62249,HD,"12620 State Rte 143, Highland, IL 62249","(38.760104, -89.688785)",38.760104,-89.688785
HD-416,201 School St,Hillsboro,IL,62049,HD,"201 School St, Hillsboro, IL 62049","(39.156048, -89.493374)",39.156048,-89.493374
HD-417,842 W Morton Ave,Jacksonville,IL,62650,HD,"842 W Morton Ave, Jacksonville, IL 62650","(39.7233101, -90.2396327)",39.7233101,-90.2396327
HD-418,528 S State St,Jerseyville,IL,62052,HD,"528 S State St, Jerseyville, IL 62052","(39.1154827, -90.3243638)",39.1154827,-90.3243638
HD-419,1310 State St,Lawrenceville,IL,62439,HD,"1310 State St, Lawrenceville, IL 62439","(38.729404, -87.6844944)",38.729404,-87.6844944
HD-420,539 Woodlawn Rd,Lincoln,IL,62656,HD,"539 Woodlawn Rd, Lincoln, IL 62656","(40.1576025, -89.3736839)",40.1576025,-89.3736839
HD-421,1106 N Carbon St,Marion,IL,62959,HD,"1106 N Carbon St, Marion, IL 62959","(37.7372281, -88.9480154)",37.7372281,-88.9480154
HD-422,1117 Lakeland Blvd,Mattoon,IL,61938,HD,"1117 Lakeland Blvd, Mattoon, IL 61938","(39.4719772, -88.3766328)",39.4719772,-88.3766328
HD-423,601 Ferry St,Metropolis,IL,62960,HD,"601 Ferry St, Metropolis, IL 62960","(37.1524287, -88.7312059)",37.1524287,-88.7312059
HD-424,Us 67 & 3rd Avenue,Milan,IL,61264,HD,"Us 67 & 3rd Avenue, Milan, IL 61264","(41.417729, -90.568205)",41.417729,-90.568205
HD-425,2301 16th Street,Moline,IL,61265,HD,"2301 16th Street, Moline, IL 61265","(41.4890735, -90.513677)",41.4890735,-90.513677
HD-426,309 N Market St,Monticello,IL,61856,HD,"309 N Market St, Monticello, IL 61856","(40.0264409, -88.5733916)",40.0264409,-88.5733916
HD-427,St. Rt 6 & Brisbin Rd,Morris,IL,60450,HD,"St. Rt 6 & Brisbin Rd, Morris, IL 60450","(41.397183, -88.401921)",41.397183,-88.401921
HD-428,4333 Broadway St,Mount Vernon,IL,62864,HD,"4333 Broadway St, Mount Vernon, IL 62864","(38.3164778, -88.9098041)",38.3164778,-88.9098041
HD-429,1600 Broadway St,Mount Vernon,IL,62864,HD,"1600 Broadway St, Mount Vernon, IL 62864","(38.316492, -88.910506)",38.316492,-88.910506
HD-430,340 Walnut St,Murphysboro,IL,62966,HD,"340 Walnut St, Murphysboro, IL 62966","(37.7643711, -89.3267038)",37.7643711,-89.3267038
HD-431,180 S Mill St,Nashville,IL,62263,HD,"180 S Mill St, Nashville, IL 62263","(38.342993, -89.380602)",38.342993,-89.380602
HD-432,8690 Richter School Rd,New Baden,IL,62265,HD,"8690 Richter School Rd, New Baden, IL 62265","(38.5336977, -89.7329237)",38.5336977,-89.7329237
HD-433,701 West Jourdan Avenue,Newton,IL,62448,HD,"701 West Jourdan Avenue, Newton, IL 62448","(38.990828, -88.170836)",38.990828,-88.170836
HD-434,1523 E College Ave,Normal,IL,61761,HD,"1523 E College Ave, Normal, IL 61761","(40.5102387, -88.9600727)",40.5102387,-88.9600727
HD-435,17919 Newton Road,Oakwood,IL,61858,HD,"17919 Newton Road, Oakwood, IL 61858","(40.129509, -87.778359)",40.129509,-87.778359
HD-436,110 East Highway 50,O Fallon,IL,62269,HD,"110 East Highway 50, O Fallon, IL 62269","(38.584514, -89.871648)",38.584514,-89.871648
HD-437,124 Hartman Ln,O Fallon,IL,62269,HD,"124 Hartman Ln, O Fallon, IL 62269","(38.5920324, -89.9480768)",38.5920324,-89.9480768
HD-438,1001 W Walnut St,Oglesby,IL,61348,HD,"1001 W Walnut St, Oglesby, IL 61348","(41.2934754, -89.0865656)",41.2934754,-89.0865656
HD-439,2625 Columbus St,Ottawa,IL,61350,HD,"2625 Columbus St, Ottawa, IL 61350","(41.3695479, -88.8365318)",41.3695479,-88.8365318
HD-440,316 S Main St,Paris,IL,61944,HD,"316 S Main St, Paris, IL 61944","(39.6088745, -87.6947878)",39.6088745,-87.6947878
HD-441,451 W Ottawa Rd,Paxton,IL,60957,HD,"451 W Ottawa Rd, Paxton, IL 60957","(40.455421, -88.105836)",40.455421,-88.105836
HD-442,105 N 5Th St,Pekin,IL,61554,HD,"105 N 5Th St, Pekin, IL 61554","(40.5695454, -89.6449801)",40.5695454,-89.6449801
HD-443,3505 Ne Adams St,Peoria,IL,61603,HD,"3505 Ne Adams St, Peoria, IL 61603","(40.7202766, -89.5573285)",40.7202766,-89.5573285
HD-444,8787 N Knoxville Ave,Peoria,IL,61615,HD,"8787 N Knoxville Ave, Peoria, IL 61615","(40.7949409, -89.6065971)",40.7949409,-89.6065971
HD-445,3909 W War Memorial Drive,Peoria,IL,61615,HD,"3909 W War Memorial Drive, Peoria, IL 61615","(40.7345371, -89.6178644)",40.7345371,-89.6178644
HD-446,3431 N University Street,Peoria,IL,61604,HD,"3431 N University Street, Peoria, IL 61604","(40.7298442, -89.6128281)",40.7298442,-89.6128281
HD-447,401 E Sangamon Ave,Petersburg,IL,62675,HD,"401 E Sangamon Ave, Petersburg, IL 62675","(40.013058, -89.846145)",40.013058,-89.846145
HD-448,1526 No 12Th St,Quincy,IL,62301,HD,"1526 No 12Th St, Quincy, IL 62301","(39.949625, -91.396481)",39.949625,-91.396481
HD-449,2916 Broadway,Quincy,IL,62301,HD,"2916 Broadway, Quincy, IL 62301","(39.9353628, -91.3691947)",39.9353628,-91.3691947
HD-450,502 E. Main Street,Robinson,IL,62454,HD,"502 E. Main Street, Robinson, IL 62454","(39.0059905, -87.7343992)",39.0059905,-87.7343992
HD-451,400 Steward Rd,Rochelle,IL,61068,HD,"400 Steward Rd, Rochelle, IL 61068","(41.897852, -89.052899)",41.897852,-89.052899
HD-452,503 First Ave,Rock Falls,IL,61071,HD,"503 First Ave, Rock Falls, IL 61071","(41.779767, -89.68959)",41.779767,-89.68959
HD-453,4628 S Main St,Rockford,IL,61101,HD,"4628 S Main St, Rockford, IL 61101","(42.2140212, -89.1086327)",42.2140212,-89.1086327
HD-454,1419 38th St,Rock Island,IL,61201,HD,"1419 38th St, Rock Island, IL 61201","(41.4967194, -90.5475442)",41.4967194,-90.5475442
HD-455,13477 Quality Dr,Roscoe,IL,61073,HD,"13477 Quality Dr, Roscoe, IL 61073","(42.4560218, -88.9980668)",42.4560218,-88.9980668
HD-456,600 W Clinton St,Rushville,IL,62681,HD,"600 W Clinton St, Rushville, IL 62681","(40.1172678, -90.5743934)",40.1172678,-90.5743934
HD-457,501 W Main St,Salem,IL,62881,HD,"501 W Main St, Salem, IL 62881","(38.626985, -88.949666)",38.626985,-88.949666
HD-458,1533 E 162nd Street,South Holland,IL,60473,HD,"1533 E 162nd Street, South Holland, IL 60473","(41.599773, -87.5797908)",41.599773,-87.5797908
HD-459,1835 Sangamon Ave,Springfield,IL,62702,HD,"1835 Sangamon Ave, Springfield, IL 62702","(39.8314321, -89.6311164)",39.8314321,-89.6311164
HD-460,2501 Stevenson Dr,Springfield,IL,62703,HD,"2501 Stevenson Dr, Springfield, IL 62703","(39.7585595, -89.6189643)",39.7585595,-89.6189643
HD-461,1700 Wabash Ave,Springfield,IL,62704,HD,"1700 Wabash Ave, Springfield, IL 62704","(39.7640408, -89.6864685)",39.7640408,-89.6864685
HD-462,600 W Jefferson St,Springfield,IL,62702,HD,"600 W Jefferson St, Springfield, IL 62702","(39.8027986, -89.6629392)",39.8027986,-89.6629392
HD-463,3217 E Clear Lake Ave,Springfield,IL,62702,HD,"3217 E Clear Lake Ave, Springfield, IL 62702","(39.801988, -89.605501)",39.801988,-89.605501
HD-464,117 N Hibbard,Staunton,IL,62088,HD,"117 N Hibbard, Staunton, IL 62088","(39.012228, -89.791456)",39.012228,-89.791456
HD-465,203 W Jackson,Sullivan,IL,61951,HD,"203 W Jackson, Sullivan, IL 61951","(39.600828, -88.60038)",39.600828,-88.60038
HD-466,809 Moore Ave,Tuscola,IL,61953,HD,"809 Moore Ave, Tuscola, IL 61953","(39.659168, -88.027374)",39.659168,-88.027374
HD-467,905 N Springfield St,Virden,IL,62690,HD,"905 N Springfield St, Virden, IL 62690","(39.5113056, -89.7674083)",39.5113056,-89.7674083
HD-468,1102 Peoria St,Washington,IL,61571,HD,"1102 Peoria St, Washington, IL 61571","(40.7029157, -89.4239008)",40.7029157,-89.4239008
HD-469,912 N Market,Waterloo,IL,62298,HD,"912 N Market, Waterloo, IL 62298","(38.356304, -90.15311)",38.356304,-90.15311
HD-470,1099 Edwardsville Rd.,Wood River,IL,62095,HD,"1099 Edwardsville Rd., Wood River, IL 62095","(38.844501, -90.040169)",38.844501,-90.040169
HD-471,5627 S Scatterfield Road,Anderson,IN,46013,HD,"5627 S Scatterfield Road, Anderson, IN 46013","(40.058841, -85.653012)",40.058841,-85.653012
HD-472,3443 W Maumee St,Angola,IN,46703,HD,"3443 W Maumee St, Angola, IN 46703","(41.6350472, -85.032893)",41.6350472,-85.032893
HD-473,1510 16th St,Bedford,IN,47421,HD,"1510 16th St, Bedford, IN 47421","(38.8609173, -86.491795)",38.8609173,-86.491795
HD-474,3301 W 3rd St,Bloomington,IN,47404,HD,"3301 W 3rd St, Bloomington, IN 47404","(39.164499, -86.577063)",39.164499,-86.577063
HD-475,211 N Main St,Bluffton,IN,46714,HD,"211 N Main St, Bluffton, IN 46714","(40.7411941, -85.1709799)",40.7411941,-85.1709799
HD-476,304 E National Ave,Brazil,IN,47834,HD,"304 E National Ave, Brazil, IN 47834","(39.5243373, -87.1225967)",39.5243373,-87.1225967
HD-477,1741 E State Rd 163,Clinton,IN,47842,HD,"1741 E State Rd 163, Clinton, IN 47842","(39.6579, -87.432023)",39.6579,-87.432023
HD-478,500 N Eastern Ave,Connersville,IN,47331,HD,"500 N Eastern Ave, Connersville, IN 47331","(39.6410595, -85.1375025)",39.6410595,-85.1375025
HD-479,549 E MAIN ST,DANVILLE,IN,46122,HD,"549 E MAIN ST, DANVILLE, IN 46122","(39.7602766, -86.5157023)",39.7602766,-86.5157023
HD-480,240 N 13th St,Decatur,IN,46733,HD,"240 N 13th St, Decatur, IN 46733","(40.8299002, -84.9376081)",40.8299002,-84.9376081
HD-481,12000 N Hartman Dr,Edinburgh,IN,46124,HD,"12000 N Hartman Dr, Edinburgh, IN 46124","(39.311129, -85.966508)",39.311129,-85.966508
HD-482,2620 Cassopolis St,Elkhart,IN,46514,HD,"2620 Cassopolis St, Elkhart, IN 46514","(41.72096, -85.972678)",41.72096,-85.972678
HD-483,2820 E Main St,Elwood,IN,46036,HD,"2820 E Main St, Elwood, IN 46036","(40.277119, -85.824451)",40.277119,-85.824451
HD-484,1501 N Boeke Rd,Evansville,IN,47711,HD,"1501 N Boeke Rd, Evansville, IN 47711","(37.990539, -87.519944)",37.990539,-87.519944
HD-485,4400 Covert Ave,Evansville,IN,47714,HD,"4400 Covert Ave, Evansville, IN 47714","(37.955082, -87.497314)",37.955082,-87.497314
HD-486,2315 W Illinois St,Evansville,IN,47712,HD,"2315 W Illinois St, Evansville, IN 47712","(37.9796749, -87.5992659)",37.9796749,-87.5992659
HD-487,11660 ALLISONVILLE RD,FISHERS,IN,46038,HD,"11660 ALLISONVILLE RD, FISHERS, IN 46038","(39.9575034, -86.0399127)",39.9575034,-86.0399127
HD-488,5918 Lima Rd,Fort Wayne,IN,46818,HD,"5918 Lima Rd, Fort Wayne, IN 46818","(41.1328344, -85.1599475)",41.1328344,-85.1599475
HD-489,2720 Maplecrest Road,Fort Wayne,IN,46815,HD,"2720 Maplecrest Road, Fort Wayne, IN 46815","(41.1023677, -85.0597883)",41.1023677,-85.0597883
HD-490,4950 Beaner Blvd,Gas City,IN,46933,HD,"4950 Beaner Blvd, Gas City, IN 46933","(40.4833237, -85.551424)",40.4833237,-85.551424
HD-491,2201 Cr 17,Goshen,IN,46528,HD,"2201 Cr 17, Goshen, IN 46528","(41.614445, -85.8872449)",41.614445,-85.8872449
HD-492,1215 W Main St,Greenfield,IN,46140,HD,"1215 W Main St, Greenfield, IN 46140","(39.784319, -85.78666)",39.784319,-85.78666
HD-493,1881 N State St,Greenfield,IN,46140,HD,"1881 N State St, Greenfield, IN 46140","(39.8117569, -85.7699722)",39.8117569,-85.7699722
HD-494,2209 North Jefferson Street,Huntington,IN,46750,HD,"2209 North Jefferson Street, Huntington, IN 46750","(40.8937204, -85.5061175)",40.8937204,-85.5061175
HD-495,8009 PENDLETON PIKE,INDIANAPOLIS,IN,46226,HD,"8009 PENDLETON PIKE, INDIANAPOLIS, IN 46226","(39.8366182, -86.0263465)",39.8366182,-86.0263465
HD-496,4401 E 10TH STREET,INDIANAPOLIS,IN,46201,HD,"4401 E 10TH STREET, INDIANAPOLIS, IN 46201","(39.7793413, -86.0952718)",39.7793413,-86.0952718
HD-497,5950 BROOKVILLE RD,INDIANAPOLIS,IN,46219,HD,"5950 BROOKVILLE RD, INDIANAPOLIS, IN 46219","(39.7582479, -86.0651034)",39.7582479,-86.0651034
HD-498,921 E WASHINGTON ST,INDIANAPOLIS,IN,46202,HD,"921 E WASHINGTON ST, INDIANAPOLIS, IN 46202","(39.7665216, -86.1418969)",39.7665216,-86.1418969
HD-499,6313 W WASHINGTON ST,INDIANAPOLIS,IN,46241,HD,"6313 W WASHINGTON ST, INDIANAPOLIS, IN 46241","(39.7466332, -86.270153)",39.7466332,-86.270153
HD-500,8015 S MERIDIAN ST,INDIANAPOLIS,IN,46217,HD,"8015 S MERIDIAN ST, INDIANAPOLIS, IN 46217","(39.6508092, -86.1578266)",39.6508092,-86.1578266
HD-501,9020 E 21ST ST,INDIANAPOLIS,IN,46229,HD,"9020 E 21ST ST, INDIANAPOLIS, IN 46229","(39.7967825, -86.008955)",39.7967825,-86.008955
HD-502,8601 ALLISONVILLE RD,INDIANAPOLIS,IN,46250,HD,"8601 ALLISONVILLE RD, INDIANAPOLIS, IN 46250","(39.9129925, -86.0740438)",39.9129925,-86.0740438
HD-503,1426 E 86TH ST,INDIANAPOLIS,IN,46240,HD,"1426 E 86TH ST, INDIANAPOLIS, IN 46240","(39.9129077, -86.1352473)",39.9129077,-86.1352473
HD-504,4945 S EMERSON AVE,INDIANAPOLIS,IN,46203,HD,"4945 S EMERSON AVE, INDIANAPOLIS, IN 46203","(39.6954363, -86.0826553)",39.6954363,-86.0826553
HD-505,710 W 10TH ST,INDIANAPOLIS,IN,46202,HD,"710 W 10TH ST, INDIANAPOLIS, IN 46202","(39.7812197, -86.1709884)",39.7812197,-86.1709884
HD-506,5016 HARDING LN,INDIANAPOLIS,IN,46217,HD,"5016 HARDING LN, INDIANAPOLIS, IN 46217","(39.6919992, -86.1861863)",39.6919992,-86.1861863
HD-507,4915 E. 56TH STREET,INDIANAPOLIS,IN,46220,HD,"4915 E. 56TH STREET, INDIANAPOLIS, IN 46220","(39.8547973, -86.0874113)",39.8547973,-86.0874113
HD-508,3005 W 86TH ST,INDIANAPOLIS,IN,46268,HD,"3005 W 86TH ST, INDIANAPOLIS, IN 46268","(39.9113189, -86.2130935)",39.9113189,-86.2130935
HD-509,2525 N HIGH SCHOOL RD,INDIANAPOLIS,IN,46224,HD,"2525 N HIGH SCHOOL RD, INDIANAPOLIS, IN 46224","(39.8022261, -86.2693699)",39.8022261,-86.2693699
HD-510,762 Second St,Jasper,IN,47546,HD,"762 Second St, Jasper, IN 47546","(38.387726, -86.957836)",38.387726,-86.957836
HD-511,301 W Court Ave,Jeffersonville,IN,47130,HD,"301 W Court Ave, Jeffersonville, IN 47130","(38.273075, -85.744533)",38.273075,-85.744533
HD-512,2740 Allison Lane,Jeffersonville,IN,47130,HD,"2740 Allison Lane, Jeffersonville, IN 47130","(38.3219901, -85.712055)",38.3219901,-85.712055
HD-513,1500 E Morgan St,Kokomo,IN,46901,HD,"1500 E Morgan St, Kokomo, IN 46901","(40.5060987, -86.1123584)",40.5060987,-86.1123584
HD-514,710 Sagamore Parkway N,Lafayette,IN,47904,HD,"710 Sagamore Parkway N, Lafayette, IN 47904","(40.42411, -86.8588034)",40.42411,-86.8588034
HD-515,2400 E 200 N,Lafayette,IN,47905,HD,"2400 E 200 N, Lafayette, IN 47905","(40.452286, -86.848821)",40.452286,-86.848821
HD-516,W Eads Pkwy,Lawrenceburg,IN,47025,HD,"W Eads Pkwy, Lawrenceburg, IN 47025","(39.0971817, -84.8536376)",39.0971817,-84.8536376
HD-517,6582 S. State Road 66,Leavenworth,IN,47137,HD,"6582 S. State Road 66, Leavenworth, IN 47137","(38.239413, -86.361041)",38.239413,-86.361041
HD-518,425 S Lebanon St,Lebanon,IN,46052,HD,"425 S Lebanon St, Lebanon, IN 46052","(40.0450417, -86.4693259)",40.0450417,-86.4693259
HD-519,1121 E Market St,Logansport,IN,46947,HD,"1121 E Market St, Logansport, IN 46947","(40.7544845, -86.3557101)",40.7544845,-86.3557101
HD-520,330 Clifty Drive,Madison,IN,47250,HD,"330 Clifty Drive, Madison, IN 47250","(38.7750698, -85.3937275)",38.7750698,-85.3937275
HD-521,3808 S Western Ave,Marion,IN,46953,HD,"3808 S Western Ave, Marion, IN 46953","(40.5229713, -85.6735626)",40.5229713,-85.6735626
HD-522,589 State Road 39 Byp S,Martinsville,IN,46151,HD,"589 State Road 39 Byp S, Martinsville, IN 46151","(39.421967, -86.435706)",39.421967,-86.435706
HD-523,5223 Franklin Street,Michigan City,IN,46360,HD,"5223 Franklin Street, Michigan City, IN 46360","(41.6729148, -86.8940895)",41.6729148,-86.8940895
HD-524,227 E MCGALLIARD ROAD,MUNCIE,IN,47303,HD,"227 E MCGALLIARD ROAD, MUNCIE, IN 47303","(40.2189275, -85.3852475)",40.2189275,-85.3852475
HD-525,4033 Bell Rd,Newburgh,IN,47630,HD,"4033 Bell Rd, Newburgh, IN 47630","(37.9626573, -87.4049439)",37.9626573,-87.4049439
HD-526,129 S Memorial Dr,New Castle,IN,47362,HD,"129 S Memorial Dr, New Castle, IN 47362","(39.9304648, -85.3816722)",39.9304648,-85.3816722
HD-527,1001 N Us Highway 31,New Whiteland,IN,46184,HD,"1001 N Us Highway 31, New Whiteland, IN 46184","(39.548949, -86.08664)",39.548949,-86.08664
HD-528,2500 CONNER ST,NOBLESVILLE,IN,46060,HD,"2500 CONNER ST, NOBLESVILLE, IN 46060","(40.045703, -85.996538)",40.045703,-85.996538
HD-529,2305 N. Highway 3,North Vernon,IN,47265,HD,"2305 N. Highway 3, North Vernon, IN 47265","(39.017353, -85.640094)",39.017353,-85.640094
HD-530,789 NORTH GOSPEL,PAOLI,IN,47454,HD,"789 NORTH GOSPEL, PAOLI, IN 47454","(38.5657415, -86.4654685)",38.5657415,-86.4654685
HD-531,7160 S STATE RD 67,PENDLETON,IN,46064,HD,"7160 S STATE RD 67, PENDLETON, IN 46064","(39.988669, -85.742976)",39.988669,-85.742976
HD-532,301 N Broadway,Peru,IN,46970,HD,"301 N Broadway, Peru, IN 46970","(40.7587289, -86.0719921)",40.7587289,-86.0719921
HD-533,1630 E MAIN ST,PLAINFIELD,IN,46168,HD,"1630 E MAIN ST, PLAINFIELD, IN 46168","(39.7096798, -86.3801703)",39.7096798,-86.3801703
HD-534,2952 Gary Drive,Plymouth,IN,46563,HD,"2952 Gary Drive, Plymouth, IN 46563","(41.3629747, -86.352044)",41.3629747,-86.352044
HD-535,2698 Us Highway 35 N,Richmond,IN,47374,HD,"2698 Us Highway 35 N, Richmond, IN 47374","(39.870326, -84.930784)",39.870326,-84.930784
HD-536,1925 Chester Blvd,Richmond,IN,47374,HD,"1925 Chester Blvd, Richmond, IN 47374","(39.8327538, -84.8902465)",39.8327538,-84.8902465
HD-537,200 S Main St,Rushville,IN,46173,HD,"200 S Main St, Rushville, IN 46173","(39.606645, -85.444696)",39.606645,-85.444696
HD-538,1128 W Mcclain Ave,Scottsburg,IN,47170,HD,"1128 W Mcclain Ave, Scottsburg, IN 47170","(38.6858942, -85.7838251)",38.6858942,-85.7838251
HD-539,240 S. Indiana Ave,Sellersburg,IN,47172,HD,"240 S. Indiana Ave, Sellersburg, IN 47172","(38.3973865, -85.7574885)",38.3973865,-85.7574885
HD-540,207 W Ireland Rd,South Bend,IN,46614,HD,"207 W Ireland Rd, South Bend, IN 46614","(41.6273766, -86.252758)",41.6273766,-86.252758
HD-541,888 W State Rd 154,Sullivan,IN,47882,HD,"888 W State Rd 154, Sullivan, IN 47882","(39.103063, -87.434172)",39.103063,-87.434172
HD-542,200 N Third St,Terre Haute,IN,47807,HD,"200 N Third St, Terre Haute, IN 47807","(39.477491, -87.41388)",39.477491,-87.41388
HD-543,3381 S Us Highway 41,Terre Haute,IN,47802,HD,"3381 S Us Highway 41, Terre Haute, IN 47802","(39.424752, -87.41608)",39.424752,-87.41608
HD-544,1730 E Harlan Drive,Terre Haute,IN,47802,HD,"1730 E Harlan Drive, Terre Haute, IN 47802","(39.346952, -87.390429)",39.346952,-87.390429
HD-545,1875 Campbell Crossing,Tipton,IN,46072,HD,"1875 Campbell Crossing, Tipton, IN 46072","(40.2758707, -86.1316039)",40.2758707,-86.1316039
HD-546,1906 Hart Street,Vincennes,IN,47591,HD,"1906 Hart Street, Vincennes, IN 47591","(38.6665926, -87.512665)",38.6665926,-87.512665
HD-547,3360 Lake City Hwy,Warsaw,IN,46580,HD,"3360 Lake City Hwy, Warsaw, IN 46580","(41.233097, -85.804598)",41.233097,-85.804598
HD-548,2004 E National Hwy,Washington,IN,47501,HD,"2004 E National Hwy, Washington, IN 47501","(38.6530016, -87.1521884)",38.6530016,-87.1521884
HD-549,2232 Fair Road,Abilene,KS,67410,HD,"2232 Fair Road, Abilene, KS 67410","(38.9201882, -97.2606178)",38.9201882,-97.2606178
HD-550,1126 E 12th Ave,Emporia,KS,66801,HD,"1126 E 12th Ave, Emporia, KS 66801","(38.4123142, -96.1650625)",38.4123142,-96.1650625
HD-551,8021 State Ave,Kansas City,KS,66112,HD,"8021 State Ave, Kansas City, KS 66112","(39.1162958, -94.7662712)",39.1162958,-94.7662712
HD-552,2400 E Kansas Ave,Mcpherson,KS,67460,HD,"2400 E Kansas Ave, Mcpherson, KS 67460","(38.3700949, -97.6151475)",38.3700949,-97.6151475
HD-553,815 S Parker St,Olathe,KS,66061,HD,"815 S Parker St, Olathe, KS 66061","(38.8715061, -94.8349566)",38.8715061,-94.8349566
HD-554,203 E 27th Ave,Ottawa,KS,66067,HD,"203 E 27th Ave, Ottawa, KS 66067","(38.935048, -95.204955)",38.935048,-95.204955
HD-555,10500 Metcalf Ave,Overland Park,KS,66212,HD,"10500 Metcalf Ave, Overland Park, KS 66212","(38.9380043, -94.6682227)",38.9380043,-94.6682227
HD-556,1015 S Broadway ST,Pittsburg,KS,66762,HD,"1015 S Broadway ST, Pittsburg, KS 66762","(37.3991104, -94.7048076)",37.3991104,-94.7048076
HD-557,2424 Sw 6Th Ave,Topeka,KS,66606,HD,"2424 Sw 6Th Ave, Topeka, KS 66606","(39.0590758, -95.7056329)",39.0590758,-95.7056329
HD-558,2100 Sw Wanamaker Rd,Topeka,KS,66614,HD,"2100 Sw Wanamaker Rd, Topeka, KS 66614","(39.0286933, -95.7617215)",39.0286933,-95.7617215
HD-559,707 N 3Rd St,Bardstown,KY,40004,HD,"707 N 3Rd St, Bardstown, KY 40004","(37.820244, -85.463155)",37.820244,-85.463155
HD-560,1808 MAIN ST,BEAVER DAM,KY,42320,HD,"1808 MAIN ST, BEAVER DAM, KY 42320","(37.391633, -86.869497)",37.391633,-86.869497
HD-561,61 Us Highway 68 W,Benton,KY,42025,HD,"61 Us Highway 68 W, Benton, KY 42025","(36.925926, -88.34413)",36.925926,-88.34413
HD-562,241 BRENNER ST,BOWLING GREEN,KY,42101,HD,"241 BRENNER ST, BOWLING GREEN, KY 42101","(37.0346357, -86.3393964)",37.0346357,-86.3393964
HD-563,127 CUMBERLAND TRACE RD,BOWLING GREEN,KY,42103,HD,"127 CUMBERLAND TRACE RD, BOWLING GREEN, KY 42103","(36.9328041, -86.4155606)",36.9328041,-86.4155606
HD-564,592 INTERSTATE DRIVE,BOWLING GREEN,KY,42101,HD,"592 INTERSTATE DRIVE, BOWLING GREEN, KY 42101","(37.0069911, -86.3705256)",37.0069911,-86.3705256
HD-565,2370 RUSSELLVILLE RD,BOWLING GREEN,KY,42101,HD,"2370 RUSSELLVILLE RD, BOWLING GREEN, KY 42101","(36.9692873, -86.4799274)",36.9692873,-86.4799274
HD-566,1303 East Broadway,Campbellsville,KY,42718,HD,"1303 East Broadway, Campbellsville, KY 42718","(37.3513558, -85.3319927)",37.3513558,-85.3319927
HD-567,90 DOHONEY TRACE,COLUMBIA,KY,42728,HD,"90 DOHONEY TRACE, COLUMBIA, KY 42728","(37.0750177, -85.3367511)",37.0750177,-85.3367511
HD-568,411 S Main St,Corbin,KY,40701,HD,"411 S Main St, Corbin, KY 40701","(36.944783, -84.095662)",36.944783,-84.095662
HD-569,222 Highway 770,Corbin,KY,40701,HD,"222 Highway 770, Corbin, KY 40701","(36.974688, -84.132856)",36.974688,-84.132856
HD-570,1716 EAST MAIN STREET,CUMBERLAND,KY,40823,HD,"1716 EAST MAIN STREET, CUMBERLAND, KY 40823","(36.9747096, -82.9799553)",36.9747096,-82.9799553
HD-571,681 US HWY 27 S,CYNTHIANA,KY,41031,HD,"681 US HWY 27 S, CYNTHIANA, KY 41031","(38.422509, -84.282235)",38.422509,-84.282235
HD-572,1706 N Dixie Hwy,Elizabethtown,KY,42701,HD,"1706 N Dixie Hwy, Elizabethtown, KY 42701","(37.757905, -85.898297)",37.757905,-85.898297
HD-573,601 South Ring Road,Elizabethtown,KY,42701,HD,"601 South Ring Road, Elizabethtown, KY 42701","(37.732194, -85.844399)",37.732194,-85.844399
HD-574,104 Buffalo Creek Dr,Elizabethtown,KY,42701,HD,"104 Buffalo Creek Dr, Elizabethtown, KY 42701","(37.7147271, -85.8331916)",37.7147271,-85.8331916
HD-575,705 SCHENKEL LN,FRANKFORT,KY,40601,HD,"705 SCHENKEL LN, FRANKFORT, KY 40601","(38.2159449, -84.8410947)",38.2159449,-84.8410947
HD-576,1248 US HIGHWAY 127 S,FRANKFORT,KY,40601,HD,"1248 US HIGHWAY 127 S, FRANKFORT, KY 40601","(38.169373, -84.899861)",38.169373,-84.899861
HD-577,807 S Main St,Franklin,KY,42134,HD,"807 S Main St, Franklin, KY 42134","(36.707797, -86.57609)",36.707797,-86.57609
HD-578,240 S L Roger Wells Blvd,Glasgow,KY,42141,HD,"240 S L Roger Wells Blvd, Glasgow, KY 42141","(36.90721, -85.871793)",36.90721,-85.871793
HD-579,2000 Edmonton Road,Glasgow,KY,42141,HD,"2000 Edmonton Road, Glasgow, KY 42141","(37.009442, -85.883112)",37.009442,-85.883112
HD-580,801 NORTH CAROL MALONE BLVD.,GRAYSON,KY,41143,HD,"801 NORTH CAROL MALONE BLVD., GRAYSON, KY 41143","(38.315469, -82.955126)",38.315469,-82.955126
HD-581,840 N Main St,Greenville,KY,42345,HD,"840 N Main St, Greenville, KY 42345","(37.193032, -87.172528)",37.193032,-87.172528
HD-582,325 Veterans Drive,Hanson,KY,42413,HD,"325 Veterans Drive, Hanson, KY 42413","(37.417437, -87.477336)",37.417437,-87.477336
HD-583,1120 OLD HWY 60 EAST,HARDINSBURG,KY,40143,HD,"1120 OLD HWY 60 EAST, HARDINSBURG, KY 40143","(37.761048, -86.440525)",37.761048,-86.440525
HD-584,1548 S. US HWY 421 BYPASS,HARLAN,KY,40831,HD,"1548 S. US HWY 421 BYPASS, HARLAN, KY 40831","(36.806333, -83.301808)",36.806333,-83.301808
HD-585,1326 KENTUCKY HIGHWAY 15,HAZARD,KY,41701,HD,"1326 KENTUCKY HIGHWAY 15, HAZARD, KY 41701","(37.245807, -83.177147)",37.245807,-83.177147
HD-586,100 N Green St,Henderson,KY,42420,HD,"100 N Green St, Henderson, KY 42420","(37.83827, -87.589108)",37.83827,-87.589108
HD-587,101 Lincoln Dr,Hodgenville,KY,42748,HD,"101 Lincoln Dr, Hodgenville, KY 42748","(37.550498, -85.7338892)",37.550498,-85.7338892
HD-588,3050 Fort Campbell Blvd,Hopkinsville,KY,42240,HD,"3050 Fort Campbell Blvd, Hopkinsville, KY 42240","(36.839444, -87.4809209)",36.839444,-87.4809209
HD-589,11700 Fort Campbell Blvd.,Hopkinsville,KY,42262,HD,"11700 Fort Campbell Blvd., Hopkinsville, KY 42262","(36.7050801, -87.4559044)",36.7050801,-87.4559044
HD-590,25 Fire House Ln,Hyden,KY,41749,HD,"25 Fire House Ln, Hyden, KY 41749","(37.254587, -83.189627)",37.254587,-83.189627
HD-591,98 RICHMOND ROAD,IRVINE,KY,40336,HD,"98 RICHMOND ROAD, IRVINE, KY 40336","(37.6955455, -83.9798592)",37.6955455,-83.9798592
HD-592,HIGHWAY 15 SOUTH,JACKSON,KY,41339,HD,"HIGHWAY 15 SOUTH, JACKSON, KY 41339","(37.451378, -83.31398)",37.451378,-83.31398
HD-593,9433 Highway 805,Jenkins,KY,41537,HD,"9433 Highway 805, Jenkins, KY 41537","(37.172484, -82.632853)",37.172484,-82.632853
HD-594,100 Shelby Junction Lane,Junction City,KY,40440,HD,"100 Shelby Junction Lane, Junction City, KY 40440","(37.586513, -84.794422)",37.586513,-84.794422
HD-595,50 Corporate Dr,Lebanon,KY,40033,HD,"50 Corporate Dr, Lebanon, KY 40033","(37.5783134, -85.2368754)",37.5783134,-85.2368754
HD-596,406 S MAIN ST,LEITCHFIELD,KY,42754,HD,"406 S MAIN ST, LEITCHFIELD, KY 42754","(37.4738825, -86.2948636)",37.4738825,-86.2948636
HD-597,1125 WINCHESTER RD,LEXINGTON,KY,40505,HD,"1125 WINCHESTER RD, LEXINGTON, KY 40505","(38.042386, -84.4638498)",38.042386,-84.4638498
HD-598,202 W NEW CIRCLE RD,LEXINGTON,KY,40505,HD,"202 W NEW CIRCLE RD, LEXINGTON, KY 40505","(38.0677604, -84.4735547)",38.0677604,-84.4735547
HD-599,2990 RICHMOND RD,LEXINGTON,KY,40509,HD,"2990 RICHMOND RD, LEXINGTON, KY 40509","(37.998849, -84.443562)",37.998849,-84.443562
HD-600,815 N Wallace Wilkinson Blvd,Liberty,KY,42539,HD,"815 N Wallace Wilkinson Blvd, Liberty, KY 42539","(37.327335, -84.918571)",37.327335,-84.918571
HD-601,814 S MAIN ST,LONDON,KY,40741,HD,"814 S MAIN ST, LONDON, KY 40741","(37.123053, -84.078796)",37.123053,-84.078796
HD-602,1974 WEST HIGHWAY 192,LONDON,KY,40741,HD,"1974 WEST HIGHWAY 192, LONDON, KY 40741","(37.091214, -84.127708)",37.091214,-84.127708
HD-603,67 N Highway 3,Louisa,KY,41230,HD,"67 N Highway 3, Louisa, KY 41230","(38.114224, -82.60381)",38.114224,-82.60381
HD-604,2909 Fern Valley Rd,Louisville,KY,40213,HD,"2909 Fern Valley Rd, Louisville, KY 40213","(38.1575454, -85.7093109)",38.1575454,-85.7093109
HD-605,3459 Taylor Blvd,Louisville,KY,40215,HD,"3459 Taylor Blvd, Louisville, KY 40215","(38.1967832, -85.7824188)",38.1967832,-85.7824188
HD-606,11201 Oscar Road,Louisville,KY,40241,HD,"11201 Oscar Road, Louisville, KY 40241","(38.3006626, -85.5435106)",38.3006626,-85.5435106
HD-607,5352 Dixie Hwy,Louisville,KY,40216,HD,"5352 Dixie Hwy, Louisville, KY 40216","(38.1578406, -85.8344908)",38.1578406,-85.8344908
HD-608,770 E Center St,Madisonville,KY,42431,HD,"770 E Center St, Madisonville, KY 42431","(37.327673, -87.4851203)",37.327673,-87.4851203
HD-609,1033 Paris Rd,Mayfield,KY,42066,HD,"1033 Paris Rd, Mayfield, KY 42066","(36.7273335, -88.6299444)",36.7273335,-88.6299444
HD-610,1504 Us Highway 68,Maysville,KY,41056,HD,"1504 Us Highway 68, Maysville, KY 41056","(38.622824, -83.806816)",38.622824,-83.806816
HD-611,1310 N 12th Street,Middlesboro,KY,40965,HD,"1310 N 12th Street, Middlesboro, KY 40965","(36.613022, -83.702042)",36.613022,-83.702042
HD-612,1445 N Main St,Monticello,KY,42633,HD,"1445 N Main St, Monticello, KY 42633","(36.8477046, -84.8369349)",36.8477046,-84.8369349
HD-613,1691 FLEMINGSBURG RD,MOREHEAD,KY,40351,HD,"1691 FLEMINGSBURG RD, MOREHEAD, KY 40351","(38.1888143, -83.4770944)",38.1888143,-83.4770944
HD-614,127 Veterans Way,Morgantown,KY,42261,HD,"127 Veterans Way, Morgantown, KY 42261","(37.211175, -86.71663)",37.211175,-86.71663
HD-615,215 Indian Mound Drive,Mount Sterling,KY,40353,HD,"215 Indian Mound Drive, Mount Sterling, KY 40353","(38.041397, -83.9373)",38.041397,-83.9373
HD-616,RT 25,MT VERNON,KY,40456,HD,"RT 25, MT VERNON, KY 40456","(37.3528615, -84.3404919)",37.3528615,-84.3404919
HD-617,505 N 12th St,Murray,KY,42071,HD,"505 N 12th St, Murray, KY 42071","(36.617045, -88.315084)",36.617045,-88.315084
HD-618,903 S Main St,Nicholasville,KY,40356,HD,"903 S Main St, Nicholasville, KY 40356","(37.867974, -84.578003)",37.867974,-84.578003
HD-619,3101 Frederica St,Owensboro,KY,42301,HD,"3101 Frederica St, Owensboro, KY 42301","(37.7431919, -87.115824)",37.7431919,-87.115824
HD-620,5104 Hinkleville Rd,Paducah,KY,42001,HD,"5104 Hinkleville Rd, Paducah, KY 42001","(37.0761201, -88.686735)",37.0761201,-88.686735
HD-621,3024 Lone Oak Rd,Paducah,KY,42003,HD,"3024 Lone Oak Rd, Paducah, KY 42003","(37.0363534, -88.6644481)",37.0363534,-88.6644481
HD-622,1726 Broadway St,Paducah,KY,42001,HD,"1726 Broadway St, Paducah, KY 42001","(37.0786449, -88.61782)",37.0786449,-88.61782
HD-623,3700 Clarks River Rd,Paducah,KY,42003,HD,"3700 Clarks River Rd, Paducah, KY 42003","(37.046695, -88.557014)",37.046695,-88.557014
HD-624,545 NORTH MAYO TRAIL,PAINTSVILLE,KY,41240,HD,"545 NORTH MAYO TRAIL, PAINTSVILLE, KY 41240","(37.817357, -82.815721)",37.817357,-82.815721
HD-625,1411 MAIN ST,PARIS,KY,40361,HD,"1411 MAIN ST, PARIS, KY 40361","(38.2051285, -84.2572719)",38.2051285,-84.2572719
HD-626,667 Hambley,Pikeville,KY,41501,HD,"667 Hambley, Pikeville, KY 41501","(37.483153, -82.5190951)",37.483153,-82.5190951
HD-627,909 N. LAKE DR.,PRESTONSBURG,KY,41653,HD,"909 N. LAKE DR., PRESTONSBURG, KY 41653","(37.6794163, -82.7792448)",37.6794163,-82.7792448
HD-628,370 Us Highway 62 W,Princeton,KY,42445,HD,"370 Us Highway 62 W, Princeton, KY 42445","(37.10412, -88.002826)",37.10412,-88.002826
HD-629,524 EASTERN BYPASS,RICHMOND,KY,40475,HD,"524 EASTERN BYPASS, RICHMOND, KY 40475","(37.7329682, -84.2960483)",37.7329682,-84.2960483
HD-630,103 S KEENELAND DR,RICHMOND,KY,40475,HD,"103 S KEENELAND DR, RICHMOND, KY 40475","(37.7759428, -84.3192905)",37.7759428,-84.3192905
HD-631,2378 Highway 127,Russell Springs,KY,42642,HD,"2378 Highway 127, Russell Springs, KY 42642","(37.029941, -85.077021)",37.029941,-85.077021
HD-632,313 Porter Rd,Sadieville,KY,40370,HD,"313 Porter Rd, Sadieville, KY 40370","(38.380033, -84.604607)",38.380033,-84.604607
HD-633,5705 N Highway 27,Science Hill,KY,42553,HD,"5705 N Highway 27, Science Hill, KY 42553","(37.173594, -84.625056)",37.173594,-84.625056
HD-634,1927 Midland Trail,Shelbyville,KY,40065,HD,"1927 Midland Trail, Shelbyville, KY 40065","(38.2128015, -85.2536182)",38.2128015,-85.2536182
HD-635,409 S Highway 27,Somerset,KY,42501,HD,"409 S Highway 27, Somerset, KY 42501","(37.048429, -84.625917)",37.048429,-84.625917
HD-636,3895 S Highway 27,Somerset,KY,42501,HD,"3895 S Highway 27, Somerset, KY 42501","(37.070449, -84.619134)",37.070449,-84.619134
HD-637,378 Southside Mall,South Williamson,KY,41503,HD,"378 Southside Mall, South Williamson, KY 41503","(37.65211, -82.271329)",37.65211,-82.271329
HD-638,801 BARDSTOWN ROAD,SPRINGFIELD,KY,40069,HD,"801 BARDSTOWN ROAD, SPRINGFIELD, KY 40069","(37.6917904, -85.2368377)",37.6917904,-85.2368377
HD-639,220 S MAIN ST,STANTON,KY,40380,HD,"220 S MAIN ST, STANTON, KY 40380","(37.8422196, -83.8576694)",37.8422196,-83.8576694
HD-640,1289 WEST MAIN ST,WEST LIBERTY,KY,41472,HD,"1289 WEST MAIN ST, WEST LIBERTY, KY 41472","(37.925989, -83.258059)",37.925989,-83.258059
HD-641,730 S 10Th St,Williamsburg,KY,40769,HD,"730 S 10Th St, Williamsburg, KY 40769","(36.72589, -84.165155)",36.72589,-84.165155
HD-642,1466 W Lexington Ave,Winchester,KY,40391,HD,"1466 W Lexington Ave, Winchester, KY 40391","(38.004595, -84.2060779)",38.004595,-84.2060779
HD-643,300 Cumberland St,Bogalusa,LA,70427,HD,"300 Cumberland St, Bogalusa, LA 70427","(30.790127, -89.863912)",30.790127,-89.863912
HD-644,1118 Lowe Grout Rd,Iowa,LA,70647,HD,"1118 Lowe Grout Rd, Iowa, LA 70647","(30.256752, -93.013802)",30.256752,-93.013802
HD-645,4158 I-49 Service Rd.,Opelousas,LA,70570,HD,"4158 I-49 Service Rd., Opelousas, LA 70570","(30.529272, -92.066723)",30.529272,-92.066723
HD-646,800 Woods Rd,Cambridge,MD,21613,HD,"800 Woods Rd, Cambridge, MD 21613","(38.557673, -76.060369)",38.557673,-76.060369
HD-647,501 Church Hill Rd,Centreville,MD,21617,HD,"501 Church Hill Rd, Centreville, MD 21617","(39.0487059, -76.062149)",39.0487059,-76.062149
HD-648,9521 Ocean Hwy,Delmar,MD,21875,HD,"9521 Ocean Hwy, Delmar, MD 21875","(38.452843, -75.55856)",38.452843,-75.55856
HD-649,8335 Ocean Gtwy,Easton,MD,21601,HD,"8335 Ocean Gtwy, Easton, MD 21601","(38.778146, -76.060365)",38.778146,-76.060365
HD-650,881 E Pulaski Hwy,Elkton,MD,21921,HD,"881 E Pulaski Hwy, Elkton, MD 21921","(39.6023482, -75.8015137)",39.6023482,-75.8015137
HD-651,1699 Crain Hwy S,Glen Burnie,MD,21061,HD,"1699 Crain Hwy S, Glen Burnie, MD 21061","(39.1423149, -76.6322615)",39.1423149,-76.6322615
HD-652,42 East Main Street,Hancock,MD,21750,HD,"42 East Main Street, Hancock, MD 21750","(39.6986206, -78.1750224)",39.6986206,-78.1750224
HD-653,2635 Annapolis Rd,Hanover,MD,21076,HD,"2635 Annapolis Rd, Hanover, MD 21076","(39.132851, -76.742237)",39.132851,-76.742237
HD-654,718 Nursery Rd,Linthicum,MD,21090,HD,"718 Nursery Rd, Linthicum, MD 21090","(39.2244106, -76.6576608)",39.2244106,-76.6576608
HD-655,4111 Mountain Rd,Pasadena,MD,21122,HD,"4111 Mountain Rd, Pasadena, MD 21122","(39.1221379, -76.5153561)",39.1221379,-76.5153561
HD-656,125 Pocomoke Marketplace,Pocomoke City,MD,21851,HD,"125 Pocomoke Marketplace, Pocomoke City, MD 21851","(38.06172, -75.549964)",38.06172,-75.549964
HD-657,30362 Mt Vernon Rd,Princess Anne,MD,21853,HD,"30362 Mt Vernon Rd, Princess Anne, MD 21853","(38.2138748, -75.6986318)",38.2138748,-75.6986318
HD-658,1301 S Salisbury Blvd,Salisbury,MD,21801,HD,"1301 S Salisbury Blvd, Salisbury, MD 21801","(38.348546, -75.602087)",38.348546,-75.602087
HD-659,2403 N Salisbury Blvd,Salisbury,MD,21801,HD,"2403 N Salisbury Blvd, Salisbury, MD 21801","(38.4025076, -75.5691775)",38.4025076,-75.5691775
HD-660,1157 Shopping Center Rd,Stevensville,MD,21666,HD,"1157 Shopping Center Rd, Stevensville, MD 21666","(38.976147, -76.297127)",38.976147,-76.297127
HD-661,6560 Dixie Highway,Bridgeport,MI,48722,HD,"6560 Dixie Highway, Bridgeport, MI 48722","(43.3480655, -83.8606204)",43.3480655,-83.8606204
HD-662,606 N Lincoln Rd,Escanaba,MI,49829,HD,"606 N Lincoln Rd, Escanaba, MI 49829","(45.7525215, -87.0770507)",45.7525215,-87.0770507
HD-663,1609 Nadeau Road,Frenchtown,MI,48162,HD,"1609 Nadeau Road, Frenchtown, MI 48162","(41.9651184, -83.3449915)",41.9651184,-83.3449915
HD-664,7300 W. Grand River Ave.,Grand Ledge,MI,48837,HD,"7300 W. Grand River Ave., Grand Ledge, MI 48837","(42.785394, -84.672082)",42.785394,-84.672082
HD-665,23240 John R Rd,Hazel Park,MI,48030,HD,"23240 John R Rd, Hazel Park, MI 48030","(42.463378, -83.1037212)",42.463378,-83.1037212
HD-666,9790 Adams St,Holland,MI,49423,HD,"9790 Adams St, Holland, MI 49423","(42.7833531, -86.0218559)",42.7833531,-86.0218559
HD-667,1600 HIGHWAY 71,INTERNATIONAL FALLS,MI,56649,HD,"1600 HIGHWAY 71, INTERNATIONAL FALLS, MI 56649","(44.25029, -85.50033)",44.25029,-85.50033
HD-668,315 N Stephenson Ave,Iron Mountain,MI,49801,HD,"315 N Stephenson Ave, Iron Mountain, MI 49801","(45.8257751, -88.063022)",45.8257751,-88.063022
HD-669,350 East U.S. Hwy 2,Manistique,MI,49854,HD,"350 East U.S. Hwy 2, Manistique, MI 49854","(45.951432, -86.242911)",45.951432,-86.242911
HD-670,1120 W Washington St,Marquette,MI,49855,HD,"1120 W Washington St, Marquette, MI 49855","(46.5459759, -87.4185823)",46.5459759,-87.4185823
HD-671,18720 Partello Rd,Marshall,MI,49068,HD,"18720 Partello Rd, Marshall, MI 49068","(42.2799085, -84.9303702)",42.2799085,-84.9303702
HD-672,14137 Plank Road,Milan,MI,48160,HD,"14137 Plank Road, Milan, MI 48160","(42.0763867, -83.6680424)",42.0763867,-83.6680424
HD-673,525 E M-28,Munising,MI,49862,HD,"525 E M-28, Munising, MI 49862","(46.4158, -86.66263)",46.4158,-86.66263
HD-674,734 S 11th St,Niles,MI,49120,HD,"734 S 11th St, Niles, MI 49120","(41.8204519, -86.2471859)",41.8204519,-86.2471859
HD-675,534 E MAIN ST,OWOSSO,MI,48867,HD,"534 E MAIN ST, OWOSSO, MI 48867","(42.9975006, -84.1687146)",42.9975006,-84.1687146
HD-676,35155 Mound Rd,Sterling Heights,MI,48310,HD,"35155 Mound Rd, Sterling Heights, MI 48310","(42.552188, -83.0481583)",42.552188,-83.0481583
HD-677,1147 S Broadway Ave,Albert Lea,MN,56007,HD,"1147 S Broadway Ave, Albert Lea, MN 56007","(43.6379738, -93.3685471)",43.6379738,-93.3685471
HD-678,605 50th Ave W,Alexandria,MN,56308,HD,"605 50th Ave W, Alexandria, MN 56308","(45.8461766, -95.3859229)",45.8461766,-95.3859229
HD-679,1406 4th St Nw,Austin,MN,55912,HD,"1406 4th St Nw, Austin, MN 55912","(43.6783299, -92.9795543)",43.6783299,-92.9795543
HD-680,205 Paul Bunyan Dr Nw,Bemidji,MN,56601,HD,"205 Paul Bunyan Dr Nw, Bemidji, MN 56601","(47.4909567, -94.8819988)",47.4909567,-94.8819988
HD-681,119 Washington St,Brainerd,MN,56401,HD,"119 Washington St, Brainerd, MN 56401","(46.3582326, -94.2078225)",46.3582326,-94.2078225
HD-682,I-35 & Hwy 97,Columbus,MN,55025,HD,"I-35 & Hwy 97, Columbus, MN 55025","(45.302749, -93.002502)",45.302749,-93.002502
HD-683,2000 N State St,Fairmont,MN,56031,HD,"2000 N State St, Fairmont, MN 56031","(43.6779274, -94.447615)",43.6779274,-94.447615
HD-684,1940 Cardinal Ln,Faribault,MN,55021,HD,"1940 Cardinal Ln, Faribault, MN 55021","(44.3188971, -93.2965904)",44.3188971,-93.2965904
HD-685,2524 College Way,Fergus Falls,MN,56537,HD,"2524 College Way, Fergus Falls, MN 56537","(46.2899971, -96.1158618)",46.2899971,-96.1158618
HD-686,1250 S Pokegama Ave,Grand Rapids,MN,55744,HD,"1250 S Pokegama Ave, Grand Rapids, MN 55744","(47.2181152, -93.5286014)",47.2181152,-93.5286014
HD-687,147 Highway 212 E,Granite Falls,MN,56241,HD,"147 Highway 212 E, Granite Falls, MN 56241","(44.805233, -95.540611)",44.805233,-95.540611
HD-688,2527 E 13TH AVE,HIBBING,MN,55746,HD,"2527 E 13TH AVE, HIBBING, MN 55746","(47.435471, -92.918328)",47.435471,-92.918328
HD-689,401 1/2 Fire Monument Rd,Hinckley,MN,55037,HD,"401 1/2 Fire Monument Rd, Hinckley, MN 55037","(46.0110956, -92.9329702)",46.0110956,-92.9329702
HD-690,1409 Madison Ave,Mankato,MN,56001,HD,"1409 Madison Ave, Mankato, MN 56001","(44.1668008, -93.9694758)",44.1668008,-93.9694758
HD-691,101 W Lind Ct,Mankato,MN,56001,HD,"101 W Lind Ct, Mankato, MN 56001","(44.1891535, -94.0128775)",44.1891535,-94.0128775
HD-692,1402 E College Dr,Marshall,MN,56258,HD,"1402 E College Dr, Marshall, MN 56258","(44.4499847, -95.7651795)",44.4499847,-95.7651795
HD-693,925 1St St E,Milaca,MN,56353,HD,"925 1St St E, Milaca, MN 56353","(45.7563559, -93.640295)",45.7563559,-93.640295
HD-694,3402 28th Avenue South,Moorhead,MN,56560,HD,"3402 28th Avenue South, Moorhead, MN 56560","(46.8477021, -96.746703)",46.8477021,-96.746703
HD-695,240 Highway 65 S,Mora,MN,55051,HD,"240 Highway 65 S, Mora, MN 55051","(45.874837, -93.289477)",45.874837,-93.289477
HD-696,1710 Westridge Rd,New Ulm,MN,56073,HD,"1710 Westridge Rd, New Ulm, MN 56073","(44.3272282, -94.5038552)",44.3272282,-94.5038552
HD-697,7099 11th St N,Oakdale,MN,55128,HD,"7099 11th St N, Oakdale, MN 55128","(44.9649795, -92.9632874)",44.9649795,-92.9632874
HD-698,1120 Hoffman Dr,Owatonna,MN,55060,HD,"1120 Hoffman Dr, Owatonna, MN 55060","(44.0960333, -93.2364468)",44.0960333,-93.2364468
HD-699,8708 Crossing Dr.,Rockville,MN,56301,HD,"8708 Crossing Dr., Rockville, MN 56301","(46.148903, -93.462685)",46.148903,-93.462685
HD-700,369 Hamline Ave N,Saint Paul,MN,55104,HD,"369 Hamline Ave N, Saint Paul, MN 55104","(44.9545776, -93.1568323)",44.9545776,-93.1568323
HD-701,1180 Main St S,Sauk Centre,MN,56378,HD,"1180 Main St S, Sauk Centre, MN 56378","(45.7260624, -94.9518444)",45.7260624,-94.9518444
HD-702,320 Main St W,Sleepy Eye,MN,56085,HD,"320 Main St W, Sleepy Eye, MN 56085","(44.29754, -94.7268931)",44.29754,-94.7268931
HD-703,2102 Enterprises Dr,St. Charles,MN,55972,HD,"2102 Enterprises Dr, St. Charles, MN 55972","(43.957918, -92.067561)",43.957918,-92.067561
HD-704,151 County Road 120,St. Cloud,MN,56303,HD,"151 County Road 120, St. Cloud, MN 56303","(45.586036, -94.2026092)",45.586036,-94.2026092
HD-705,1400 13Th St,Virginia,MN,55792,HD,"1400 13Th St, Virginia, MN 55792","(47.5124498, -92.5573461)",47.5124498,-92.5573461
HD-706,204 Minnesota Avenue,Walker,MN,56484,HD,"204 Minnesota Avenue, Walker, MN 56484","(47.1003297, -94.5721652)",47.1003297,-94.5721652
HD-707,1704 1St Street S,Willmar,MN,56001,HD,"1704 1St Street S, Willmar, MN 56001","(45.1055164, -95.042486)",45.1055164,-95.042486
HD-708,250 3rd Ave,Windom,MN,56101,HD,"250 3rd Ave, Windom, MN 56101","(43.8711552, -95.116333)",43.8711552,-95.116333
HD-709,12520 Fremont Ave,Zimmerman,MN,55398,HD,"12520 Fremont Ave, Zimmerman, MN 55398","(45.4433698, -93.5871555)",45.4433698,-93.5871555
HD-710,2010 South Elliott Avenue,Aurora,MO,65605,HD,"2010 South Elliott Avenue, Aurora, MO 65605","(36.9645861, -93.7181628)",36.9645861,-93.7181628
HD-711,910 Sw Missouri RTE 7,Blue Springs,MO,64014,HD,"910 Sw Missouri RTE 7, Blue Springs, MO 64014","(39.010025, -94.272522)",39.010025,-94.272522
HD-712,1010 Highway K,Bonne Terre,MO,63628,HD,"1010 Highway K, Bonne Terre, MO 63628","(37.9219543, -90.5375107)",37.9219543,-90.5375107
HD-713,2501 W Ashley Rd,Boonville,MO,65233,HD,"2501 W Ashley Rd, Boonville, MO 65233","(38.9340187, -92.7796158)",38.9340187,-92.7796158
HD-714,18054 Highway 161,Bowling Green,MO,63334,HD,"18054 Highway 161, Bowling Green, MO 63334","(39.328313, -91.195916)",39.328313,-91.195916
HD-715,19001 Missouri Business 13,Branson West,MO,65737,HD,"19001 Missouri Business 13, Branson West, MO 65737","(36.705625, -93.372716)",36.705625,-93.372716
HD-716,1100 W Dallas St,Buffalo,MO,65622,HD,"1100 W Dallas St, Buffalo, MO 65622","(37.6403517, -93.0980007)",37.6403517,-93.0980007
HD-717,2115 William St,Cape Girardeau,MO,63703,HD,"2115 William St, Cape Girardeau, MO 63703","(37.3028682, -89.5476104)",37.3028682,-89.5476104
HD-718,2516 South Grand,Carthage,MO,64836,HD,"2516 South Grand, Carthage, MO 64836","(37.1450522, -94.3102784)",37.1450522,-94.3102784
HD-719,17368 Chesterfield Airport Rd,Chesterfield,MO,63005,HD,"17368 Chesterfield Airport Rd, Chesterfield, MO 63005","(38.6677971, -90.6047189)",38.6677971,-90.6047189
HD-720,1616 East Ohio Street,Clinton,MO,64735,HD,"1616 East Ohio Street, Clinton, MO 64735","(38.3662804, -93.7503329)",38.3662804,-93.7503329
HD-721,702 N Franklin St,Cuba,MO,65453,HD,"702 N Franklin St, Cuba, MO 65453","(38.0703049, -91.4054876)",38.0703049,-91.4054876
HD-722,12974 Highway 21,De Soto,MO,63020,HD,"12974 Highway 21, De Soto, MO 63020","(38.150369, -90.57728)",38.150369,-90.57728
HD-723,301 E 4th St,Eldon,MO,65026,HD,"301 E 4th St, Eldon, MO 65026","(38.346885, -92.579304)",38.346885,-92.579304
HD-724,545 Main Street,Fenton,MO,63026,HD,"545 Main Street, Fenton, MO 63026","(38.5137496, -90.4391634)",38.5137496,-90.4391634
HD-725,1305 Veterans Blvd,Festus,MO,63028,HD,"1305 Veterans Blvd, Festus, MO 63028","(38.213185, -90.408974)",38.213185,-90.408974
HD-726,501 E Highway 72,Fredericktown,MO,63645,HD,"501 E Highway 72, Fredericktown, MO 63645","(37.52849, -90.16997)",37.52849,-90.16997
HD-727,2900 James Rd,Hannibal,MO,63401,HD,"2900 James Rd, Hannibal, MO 63401","(39.705815, -91.387332)",39.705815,-91.387332
HD-728,4699 Gravois Rd,House Springs,MO,63051,HD,"4699 Gravois Rd, House Springs, MO 63051","(38.4105518, -90.5704033)",38.4105518,-90.5704033
HD-729,926 S Sam Houston Blvd,Houston,MO,65483,HD,"926 S Sam Houston Blvd, Houston, MO 65483","(37.321199, -91.9578245)",37.321199,-91.9578245
HD-730,4011 S Noland Rd,Independence,MO,64055,HD,"4011 S Noland Rd, Independence, MO 64055","(39.0483771, -94.4145155)",39.0483771,-94.4145155
HD-731,17701 E Us Highway 24,Independence,MO,64056,HD,"17701 E Us Highway 24, Independence, MO 64056","(39.121082, -94.369492)",39.121082,-94.369492
HD-732,421 E Jackson Blvd,Jackson,MO,63755,HD,"421 E Jackson Blvd, Jackson, MO 63755","(37.3759484, -89.6642957)",37.3759484,-89.6642957
HD-733,3601 Country Club Dr,Jefferson City,MO,65109,HD,"3601 Country Club Dr, Jefferson City, MO 65109","(38.5840806, -92.2486396)",38.5840806,-92.2486396
HD-734,1810 South Main Street,Joplin,MO,64804,HD,"1810 South Main Street, Joplin, MO 64804","(37.0716508, -94.5141456)",37.0716508,-94.5141456
